"lat","lon","city","idx","stamp","pol","x","aqi","tz","utime","img"
25.7054,100.1542,"Dali City Environmental Monitoring Station, Dali (大理州大理市环境监测站)",1387,1524744000,"pm25","7223","89","+0800","2018-04-26 20:00:00","_c_azyk0t0H-6ZPnzCW1Pt8-DsXY0Pe9b_3RR8_PZE59t7X6-eiYA"
19.95,79.3,"Chandrapur, Chandrapur, India",2813,1524742200,"pm25","8682","80","+0530","2018-04-26 17:00:00","_8_Szcs5IzEspSiwoLdJHMAE"
35.2102,128.1241,"Sangdae-dong, Jinju-si, Gyeongnam, South Korea (대한민국진주시 상대동 경남)",1778,1524744000,"pm25","4015","78","+0900","2018-04-26 21:00:00","_8w6ycq9Mzc9Lz0vM1ffKzMsq1S3O1A9OzEtPSUzVTQFKAAA"
47.3636,123.9305,"Anju Compound, Qiqihaer (齐齐哈尔安居小区)",1144,1524740400,"pm25","3631","61","+0800","2018-04-26 19:00:00","_c_azyk0t0H-5dwIQPZ3c8XTDFP2n6zqfbmx9uqH_ac8uAA"
39.5371,75.9828,"Patrol unit, Kashi (喀什地区巡警大队)",1377,1524744000,"pm25","7239","57","+0800","2018-04-26 20:00:00","_ASAA3_9DTjptZXAv5ZaA5LuA5Zyw5Yy6L-W3oeitpuWkp-mYnw"
28.14527778,120.2836111,"青田二中, Qīngtián, Lishui (丽水市青田县青田二中)",915,1524736800,"pm25","4830","155","+0800","2018-04-26 18:00:00","_ASIA3f9DTjpaaGVqaWFuZy_kuL3msLTluIIv6Z2S55Sw5LqM5Lit"
28.5808,112.3458,"City EPA, Yiyang (益阳市环保局)",1561,1524740400,"pm25","7074","154","+0800","2018-04-26 19:00:00","_c_azyk0t0H8-u-vljM36T3c0Pe9b_2T_3KcbGwA"
25.1328,99.1711,"City EPA, Baoshan (保山市环保局)",1363,1524744000,"pm25","7208","147","+0800","2018-04-26 20:00:00","_c_azyk0t0H-yf-7TjRv1n-5oet63HsxpAAA"
34.6778114,131.851239,"Showacho, Masuda, Shimane, Japan (日本益田合同庁舎一般環境大気測定局益田市)",1795,1524740400,"pm25","2392","53","+0900","2018-04-26 20:00:00","_8wqwej676_mUDU93NOlDWRM6nk7oebqr8UVH35MdDS861jyftOHpouanS5Y_2zD92Y41T9fNerqxAQA"
44.3336,84.8983,"Dushanzi District, Karamay (克拉玛依独山子区)",1185,1524744000,"pm25","4298","50","+0800","2018-04-26 20:00:00","_ASAA3_9DTjptZXAv5YWL5ouJ546b5L6dL-eLrOWxseWtkOWMug"
19.91205,109.69053,"Commission compound Archives , Lingaoxian (临高县委大院档案馆)",1495,1524740400,"pm25","5254","72","+0800","2018-04-26 19:00:00","_ASMA3P9DTjptZXAv5Li06auY5Y6_L-WnlOWkp-mZouaho-ahiOmmhg"
37.51363425,122.1412574,"Lantian Hotel, Weihai (威海蓝天宾馆)",516,1524744000,"pm25","591","152","+0800","2018-04-26 20:00:00","_ASAA3_9DTjpTaGFuZ2Rvbmcv5aiB5rW3L-iTneWkqeWuvummhg"
37.7805,112.488,"Jinsheng, Taiyuan (太原金胜)",983,1524740400,"pm25","1246","119","+0800","2018-04-26 19:00:00","_c_azyk0t0H-6ZNXTvvn6L9snvmieAwA"
34.2303,108.883,"Gaoxin West Area, Xian (西安高新西区)",1090,1524744000,"pm25","1395","114","+0800","2018-04-26 20:00:00","_c_azyk0t0H-xdP_TdZ36L1fPeDZtA4jTswsA"
40.916,107.5936,"qiū lín yǎngzhí jīdì, Bayannur (巴彦淖尔秋林养殖基地)",1484,1524744000,"pm25","7305","38","+0800","2018-04-26 20:00:00","_ASYA2f9DTjptZXAv5be05b2m5reW5bCUL-eni-ael-WFu-auluWfuuWcsA"
45.8309,130.9467,"Hú tóu gōu, Qitaihe (七台河葫头沟)",1418,1524736800,"pm25","7845","110","+0800","2018-04-26 18:00:00","_ARoA5f9DTjptZXAv5LiD5Y-w5rKzL-iRq-WktOaynw"
43.8711,87.5525,"Railway Bureau, Wulumuqi (乌鲁木齐铁路局)",1069,1524740400,"pm25","1416","95","+0800","2018-04-26 19:00:00","_AR0A4v9DTjptZXAv5LmM6bKB5pyo6b2QL-mTgei3r-WxgA"
38.2839,109.7289,"Experimental Middle  School, Yulin (榆林实验中学)",1643,1524740400,"pm25","7853","73","+0800","2018-04-26 19:00:00","_ARoA5f9DTjptZXAv5qaG5p6XL-WunumqjOS4reWtpg"
29.7207,118.3236,"Huangshandong road, no 89, Huangshan (黄山黄山东路89号)",1485,1524740400,"pm25","7117","119","+0800","2018-04-26 19:00:00","_c_azyk0t0H-5u-Xpxo1Q6smOOS-2r7ewfNq_HQA"
29.280377,106.279297,"yuanshuai square, Chongqing (重庆元帅广场)",1454,1524740400,"pm25","9225","97","+0800","2018-04-26 19:00:00","_c_azyk0t0H_Z3vt0V5v-09bmpztan-7c_3TOLgA"
14.744046,120.9613027,"City Hall, Meycauayan City, Philippines",2274,1524747600,"pm25","9569","93","+0800","2018-04-26 21:00:00","_C_Cw8k2tTE4sTaxMzFNwziyp1AcRCh6JOTkA"
32.935,117.3086,"èr shuǐ chǎng, Bangbu (蚌埠二水厂)",1653,1524740400,"pm25","7093","160","+0800","2018-04-26 19:00:00","_c_azyk0t0H8xq-fp_AX6T3b1PNuw5WlfEwA"
34.80593,126.391767,"Yongdang-dong, Mokpo-si, Jeonnam, South Korea (대한민국목포시 용당동 전남)",1787,1524744000,"pm25","4026","80","+0900","2018-04-26 21:00:00","_8w6y8krNz8tLzNX3zc8uyNctztSPzM9LT0nMS9dNATIA"
22.0019,100.7939,"Jinghong City Jiangnan, Xishuangbanna (西双版纳州景洪市江南)",1393,1524744000,"pm25","7221","109","+0800","2018-04-26 20:00:00","_ASYA2f9DTjptZXAv6KW_5Y-M54mI57qz5beeL-aZr-a0quW4guaxn-WNlw"
33.5903547,130.4017155,"Fukuoka (福岡)",1710,1524740400,"pm25","5551","65","+0900","2018-04-26 20:00:00","_y02s0PAKsHq-rP_ppoVPdzQ92bH26ZJ1T3t26cOFnu7d-ayzQQdZ1dPeWU-XzAKpetrb_HLz0mcru1Hl5_c97Z0Okn85dfvTDftQJJ9NX_micz1I8sXS_c-mbcBl8oTOpwtnoUmCzXy6ZDm6hUCTwG6ev_nJjh3YZID2AFmo7pi7EezCZTOfLenTVEgsVnArzS7Nz04EAA"
39.863,116.279,"Fengtai garden, Beijing (北京丰台花园)",493,1524744000,"pm25","455","192","+0800","2018-04-26 20:00:00","_ARMA7P_ljJfkuqw65Liw5Y-w6Iqx5Zut"
37.39555556,117.9377778,"Keling Chemical factory, Binzhou (滨州科灵化工)",531,1524744000,"pm25","631","190","+0800","2018-04-26 20:00:00","_ASAA3_9DTjpTaGFuZ2Rvbmcv5ruo5beeL-enkeeBteWMluW3pQ"
22.2800192,114.1853357,"Causeway Bay, HongKong (香港铜锣湾)",1734,1524744000,"pm25","2570","137","+0800","2018-04-26 20:00:00","_8_C2ck4sLU4tT6xUcEqsBAA"
39.608266,109.781327,"Eerduosi (鄂尔多斯)",1219,1524744000,"pm25","3477","63","+0800","2018-04-26 20:00:00","_y02s0NB39rPKTS2I0X_Z0vR0w5SnS2Y9m7Y-Rl9LX1MhsVjBNbUopTS_OBMA"
37.518636,130.7970965,"Taeha-ri, Gyeongbuk, South Korea (대한민국태하리 경북)",1462,1524718800,"pm25","5376","63","+0900","2018-04-26 14:00:00","_8w6ycq9Mzc9LTyrN1g9JTM1I1C3KBAA"
42.909409,129.471868,"Yanbian (延边州)",3392,1476212400,"pm25","7921","-","+0800","2016-10-12 03:00:00","_y02s0HD2s8pNLdB_unvbi307n26fp_90WfvTnXue9ux-OXORDqYshIVD9tmcuS9nbH66fe7Lqe0QNZoKicUKkYl5SZmJeQA"
26.376667,120.506667,"Dongyin, Taiwan",1445,1524736800,"pm25","8768","95","+0800","2018-04-26 18:00:00","_Cwm3csnPS6_MzAMA"
45.579889,84.889207,"Karamay (克拉玛依)",1191,1524744000,"pm25","1581","72","+0800","2018-04-26 20:00:00","_y02s0NB39rPKTS2I0X_a2v2su_N53-wn--bG6GvpayokFit4JxYl5iZWAgA"
34.2026624,129.2874904,"Tsushima, Nagasaki, Japan (日本国設対馬酸性雨対馬市)",2202,1524740400,"pm25","4712","63","+0900","2018-04-26 20:00:00","_8wqwerp-38tla57uaNJ_OnvvixVrIfyXrTueNSx_OXsFAA"
32.6597222,103.602777,"Songpan County North sub-station, Ngawa Zong (阿坝松潘县城北子站)",1295,1516147200,"pm25","8967","-","+0800","2018-01-17 07:00:00","_ASMA3P9DTjptZXAv6Zi_5Z2dL-advua9mOWOv-WfjuWMl-WtkOermQ"
18.459869,73.852306,"Katraj, Pune, Pune, India",2604,1524742200,"pm25","3763","136","+0530","2018-04-26 17:00:00","_8_SzCijNS9X3TiwpSswCAA"
35.5714,104.6228,"Stations (formerly the Food Authority), Dingxi (定西监测站（原粮食局）)",1686,1524740400,"pm25","7153","91","+0800","2018-04-26 19:00:00","_ASkA1v9DTjptZXAv5a6a6KW_L-ebkea1i-erme-8iOWOn-eyrumjn-WxgO-8iQ"
33.500116,126.532371,"Ido-dong, Jeju-si, Jeju, South Korea (대한민국제주시 이도동 제주)",1798,1524744000,"pm25","4042","65","+0900","2018-04-26 21:00:00","_8w6y8krNKtUHEbrFmfqeKfm6Kfl56QA"
36.5709998,138.82463,"Haramachi, Gunma Prefecture, Japan (日本東吾妻町立東吾妻中学校吾妻郡東吾妻町)",2343,1524740400,"pm25","8792","59","+0900","2018-04-26 20:00:00","_8wqwejph39Nlu182L3w2dyOE_XzKLn1kzvPV3XDukx1rn65d9mzBQgA"
17.720234,83.309521,"GVMC Ram Nagar-APPCB, Visakhapatnam, India",3182,1524166200,"pm25","9067","-","+0530","2018-04-20 01:00:00","_8_SzCsssTszOSCxILMlLzNV3D_N1VghKzFXwS0xPLNJ1DAhwdgIA"
42.8953,125.1567,"Sewage treatment plant, Liaoyuan (辽源污水处理厂)",1493,1524740400,"pm25","7285","127","+0800","2018-04-26 19:00:00","_AR0A4v9DTjptZXAv6L695rqQL-axoeawtOWkhOeQhuWOgg"
28.845833,108.761388,"táohuāyuán zhōng lù, Chongqing (重庆桃花源中路)",1482,1524740400,"pm25","9253","53","+0800","2018-04-26 19:00:00","_AR0A4v9DTjptZXAv6YeN5bqGL-ahg-iKsea6kOS4rei3rw"
36.1461819,137.2527811,"Hanaokamachi, Takayama, Gifu, Japan (日本高山高山市)",2201,1524740400,"pm25","3690","34","+0900","2018-04-26 20:00:00","_8wqwerl6xtONG5_uaNKHsAA"
42.021619,121.670324,"Fuxin (阜新)",1204,1524740400,"pm25","4348","121","+0800","2018-04-26 19:00:00","_y02s0NB39rPKTS2I0X85Y86zaRti9LX0NRUSixXcSisy8wA"
29.5186,106.54,"Nanping, Chongqing (重庆南坪)",1060,1524744000,"pm25","1350","102","+0800","2018-04-26 20:00:00","_c_azyk0t0H_Z3vt0V5v-097pT-euAgA"
40.103,114.143,"阳原县人民政府, Zhangjiakou (张家口市阳原县人民政府)",672,1524722400,"pm25","9688","63","+0800","2018-04-26 14:00:00","_ATkAxv9DTjpIZWJlaS_lvKDlrrblj6PluIIvW-iwg-ivleS4rV3pmLPljp_ljr_kurrmsJHmlL_lupwoKik"
36.7783417,137.0793036,"Mikkasone, Imizu-shi, Toyama-ken, Japan (日本新湊三日曽根射水市)",1869,1524740400,"pm25","9952","50","+0900","2018-04-26 20:00:00","_AR8A4P9KUDrlsITmsLTluIIv5paw5rmK5LiJ5pel5pu95qC5"
30.298888888889,109.50388888889,"húběi mín yuàn, Enshi, Hubei (湖北恩施湖北民院)",1251,1497592800,"pm25","6962","-","+0800","2017-06-16 14:00:00","_ARwA4_9DTjpIdWJlaS_mganmlr0v5rmW5YyX5rCR6Zmi"
22.06047,88.109737,"Haldia, Haldia, India",3173,1524166200,"pm25","8683","-","+0530","2018-04-20 01:00:00","_8_Sz8kjMSclM1IdQAA"
13.672986,79.351217,"Tirumala-APPCB, Tirupati, India",3184,1524022200,"pm25","9069","-","+0530","2018-04-18 09:00:00","_8_SzCsksKi1ILMnUBzFyE3MSdR0DApydAA"
26.2331,111.6236,"Lingling District Environmental Protection Bureau, Yongzhou (永州零陵区环保局)",1383,1524736800,"pm25","7080","107","+0800","2018-04-26 18:00:00","_ASAA3_9DTjptZXAv5rC45beeL-mbtumZteWMuueOr-S_neWxgA"
30.7636,106.0642,"Jialing District EPB, Nanchong (南充嘉陵区环保局)",1046,1524740400,"pm25","3629","89","+0800","2018-04-26 19:00:00","_ASAA3_9DTjptZXAv5Y2X5YWFL-WYiemZteWMuueOr-S_neWxgA"
35.5037545,134.2361524,"Nishimachi, Tottori-shi, Tottori-ken, Japan (日本鳥取県庁西町分庁舎鳥取市)",1858,1524740400,"pm25","8806","70","+0900","2018-04-26 20:00:00","_8wqwerl56dP-aU93NOlDWM_n9Dzd1fhi6f7nU3Y97WgDsTv6AA"
41.1933,80.2956,"Art Center, Aksu (阿克苏地区艺术中心)",1375,1524744000,"pm25","7237","152","+0800","2018-04-26 20:00:00","_ASMA3P9DTjptZXAv6Zi_5YWL6IuP5Zyw5Yy6L-iJuuacr-S4reW_gw"
35.5294,106.7039,"bówùguǎn, Pingliang (平凉博物馆)",1681,1524740400,"pm25","7147","114","+0800","2018-04-26 19:00:00","_c_azyk0t0H-6c_PT9k79p72znneufLmsDQA"
41.017,118.699,"píngquán xiàn tè jiào zhōngxīn, Chengde (承德市平泉县特教中心)",610,1524736800,"pm25","5666","114","+0800","2018-04-26 18:00:00","_ATYAyf9DTjpIZWJlaS_mib_lvrfluIIvW-iwg-ivleS4rV3lubPms4nljr_nibnmlZnkuK3lv4MoKik"
31.5546,74.3572,"Lahore, Pakistan",,,,"PK:Lahore","placeholder",,,
18.642103,73.849083,"Bhosari, Pune, Pune, India",3297,1524742200,"pm25","3765","118","+0530","2018-04-26 17:00:00","_8_SzCijNS9V3ysgvTizKBAA"
39.4365,75.9435,"City Environmental Monitoring Station, Kashi (喀什地区市环境监测站)",1355,1524744000,"pm25","7241","73","+0800","2018-04-26 20:00:00","_ASYA2f9DTjptZXAv5ZaA5LuA5Zyw5Yy6L-W4gueOr-Wig-ebkea1i-ermQ"
31.4725,102.073611,"Jinchuan Environmental Bureau, Ngawa Zong (阿坝金川县环保林业局)",1328,1516147200,"pm25","8999","-","+0800","2018-01-17 07:00:00","_ASYA2f9DTjptZXAv6Zi_5Z2dL-mHkeW3neWOv-eOr-S_neael-S4muWxgA"
28.69572,77.181295,"Satyawati College, Delhi, Delhi, India",4501,1524742200,"pm25","10115","318","+0530","2018-04-26 17:00:00","_8_SzcknNycjUD04sqUwsTyzJVHDOz8lJTU8FAA"
8.9475377,125.5406234,"city environment office, Butuan, Philippines",2263,1524747600,"pm25","9055","89","+0800","2018-04-26 21:00:00","_C_CwciotKU3M00_OLKlUSM0ryyzKz8tNzStRyE9Ly0xOBQA"
34.454477,132.4712828,"Furuichi, Hiroshima, Japan (日本古市小学校広島市安佐南区)",1802,1524744000,"pm25","2047","68","+0900","2018-04-26 21:00:00","_8wqwerqr-enmbU93ND1d1_lk74SnvdOf9uzSf9q_BCS0of_p2mXPFiwEAA"
27.573483,84.498578,"Chitwan, Nepal",1804,1495739700,"pm25","9307","-","+0545","2017-05-26 01:00:00","_8wuwcs7ILClPzAMA"
27.700063,111.993497,"Loudi (娄底)",3046,1524740400,"pm25","7910","119","+0800","2018-04-26 19:00:00","_y02s0HD2s8pNLdB_uqLl6a6p-k93ND2bsv_prjk6qOLPp2x9sbztaf_EpxtanvZv0MHQ9Xz2xGdbu5-vnokp9XT5lKets54tWIgm9Wzb_JeTFmkqJBYr-OSXpmQCAA"
22.4137,107.3476,"shì huánbǎo jú jiāng zhōu fēnjú, Chongzuo (崇左市环保局江州分局)",1334,1524740400,"pm25","7206","72","+0800","2018-04-26 19:00:00","_c_azyk0t0H-6pf3p9mX6T3c0Pe9b_2T_3KcbG55tnP90-7ynHW1ANgA"
32.6963741,128.841093,"Fukuecho, Goto, Nagasaki, Japan (日本五島五島市)",1706,1524740400,"pm25","2267","63","+0900","2018-04-26 20:00:00","_8wqwerJrytPN257uaNKHsAA"
36.585455,109.489727,"Yanan (延安)",1177,1524740400,"pm25","1574","82","+0800","2018-04-26 19:00:00","_y02s0NB39rPKTS2I0X-6e9vTdZ0x-lr6mgqJxQqRiXmJeQA"
33.9922311,133.5861801,"Kamibuncho, Shikokuchuo, Ehime, Japan (日本川之江四国中央市)",1841,1524740400,"pm25","2082","74","+0900","2018-04-26 20:00:00","_ARwA4_9KUDrlm5vlm73kuK3lpK7luIIv5bed5LmL5rGf"
27.1311,114.99,"City Environmental Monitoring Station, Ji'an (吉安市环境监测站)",1459,1524740400,"pm25","7791","168","+0800","2018-04-26 19:00:00","_ASAA3_9DTjptZXAv5ZCJ5a6JL-W4gueOr-Wig-ebkea1i-ermQ"
35.416377,119.526888,"Rizhao (日照)",1290,1524744000,"pm25","1514","154","+0800","2018-04-26 20:00:00","_y02s0HD2swrOSMxLT8nPS9d_Nn3p89bl-k93ND2bsv_prjlPd-5_OmeXDjY1z3asf9q18OnGBuyyU2c-6-t40bXx6ey1WBW8aOx5smPWs66GZ3PWP1277OXMRViVPd006-nGjc_71j_ZP_dpRxsu6162T3y5cs3T7UuBZgJt1FRILFYIyqzKSMwHAA"
31.035423,112.199265,"Jingmen (荆门)",945,1524740400,"pm25","3657","139","+0800","2018-04-26 19:00:00","_y02s0HD2s_IoTUrN1H_R2_Zy-godNL7-8_mbn_ZMe7Kj4emGfkzJ1Tufzl4LlHm6dhmG5NMdTc-m7H-6aw6GzLO-9qcdDZoKicUKXpl56bmpeQA"
19.304501021455,97.971525255487,"Natural Resources and Environment Office, Mae Hongson, Thailand (สำนักงานทรัพยากรธรรมชาติและสิ่งแวดล้อมจังหวัดแม่ฮ่องสอน)",1502,1524736800,"pm25","1829","73","+0700","2018-04-26 17:00:00","_HY3LCYBADET7sgILsKE9uXpWdC-Ciggrir_D2M2U4mYghOTNZFLkGRGJhwjERTiiJG6tHTELDsQk6ER69VQjUYu3xMsvqQtxKjCt3qIMrkRj0lcRu668YtOjTeplBnOOujrUdxmihvAD"
14.976785802969,102.10219652705,"Municipal Waste Water Pumping Station, Nakhon Ratchasima, Thailand (สถานีสูบน้ำเสีย เทศบาลนครราชสีมา)",1524,1524726000,"pm25","1854","25","+0700","2018-04-26 14:00:00","_C_GwerBj1YMd0x7s2PRgx8wHO7aCuTsf7JgF4u7sfLBj84OdDWBBoNQiBTBn-oMdK8AqgHqWgrW1PNixGIyAIl0w1QuBXAA"
31.6425,104.418888,"Beichuan County Stations, Mianyang (绵阳北川县监测站)",1280,1511762400,"pm25","8952","-","+0800","2017-11-27 13:00:00","_ASAA3_9DTjptZXAv57u16ZizL-WMl-W3neWOv-ebkea1i-ermQ"
31.7618,116.478,"West Anhui University, Lu'an (六安皖西学院)",1461,1524744000,"pm25","7126","112","+0800","2018-04-26 20:00:00","_ARoA5f9DTjptZXAv5YWt5a6JL-ealuilv-WtpumZog"
34.5004,109.5049,"Daily newspaper office, Weinan (渭南日报社)",960,1524740400,"pm25","3459","95","+0800","2018-04-26 19:00:00","_c_azyk0t0H-2Y-3T3un6z6Yvfda19PmSfQA"
27.583,110.0394,"City committee communist party school, Huaihua (怀化市委党校)",1548,1524740400,"pm25","7816","78","+0800","2018-04-26 19:00:00","_c_azyk0t0H_W0PC0Z5r-0x1NT5dPedo669mChQA"
38.444,114.56,"Xíng táng xiànwěi bàngōng lóu, Shijiazhuang (石家庄市行唐县委办公楼)",512,1524736800,"pm25","4634","186","+0800","2018-04-26 18:00:00","_AS4A0f9DTjpIZWJlaS_nn7PlrrbluoTluIIv6KGM5ZSQ5Y6_5aeU5Yqe5YWs5qW8KCop"
37.867,116.151,"阜城县第五小学, Hengshui (衡水市阜城县第五小学)",762,1524722400,"pm25","9787","183","+0800","2018-04-26 14:00:00","_ATYAyf9DTjpIZWJlaS_ooaHmsLTluIIvW-iwg-ivleS4rV3pmJzln47ljr_nrKzkupTlsI_lraYoKik"
39.7294,98.5023,"fùkāng jiā shìjiè zi zhàn, Jiuquan (酒泉富康家世界子站)",1683,1524740400,"pm25","7149","71","+0800","2018-04-26 19:00:00","_ASMA3P9DTjptZXAv6YWS5rOJL-WvjOW6t-WutuS4lueVjOWtkOermQ"
33.48863,126.500055,"yeon, Jeju-si, Jeju, South Korea (대한민국제주시 연동 제주)",1698,1524744000,"pm25","1806","76","+0900","2018-04-26 21:00:00","_8w6y8krNKtUHEbrFmQA"
13.689028480765,102.50620686398,"Sriaranyothai Kindergarten, Aranyaprathed, Sa Kaeo, Thailand (โรงเรียนอนุบาลศรีอรัญโญทัย สระแก้ว)",1536,1524726000,"pm25","1869","32","+0700","2018-04-26 14:00:00","_NYtBCkBgGAWv4hxO4AAOhI0srMWSREqh1Py3maOor2xe85r3yiI3NbJIa6oCXplllDMSmeSRVfZ_cAbc0se9lyHqnMkR7jLVUps62T4"
32.131944,119.430278,"Dantu Monitoring Station , Zhenjiang (镇江丹徒区监测站)",1197,1524744000,"pm25","879","181","+0800","2018-04-26 20:00:00","_ASQA2_9DTjpKaWFuZ3N1L-mVh-axny_kuLnlvpLljLrnm5HmtYvnq5k"
31.370833,120.640556,"Xiangcheng district, Suzhou (苏州相城区)",1121,1524744000,"pm25","841","158","+0800","2018-04-26 20:00:00","_c_az8spMzEsvLtV_0d3_dPs8_eezdzyd3_e0ZxcA"
29.866811,121.596128,"Taigu Primary School, Ningbo (宁波太古小学)",1031,1524736800,"pm25","951","95","+0800","2018-04-26 18:00:00","_c_az8svMS0_K13-6ZNXT_iVPN_Q_XbsMAA"
46.3991,124.8847,"Honggang District, Daqing (大庆红岗区)",1150,1524740400,"pm25","3638","68","+0800","2018-04-26 19:00:00","_c_azyk0t0H-6ZPnTXW36z3cterpp-tOeXQA"
25.1035,117.0216,"Longyan City Stations, Longyan (龙岩龙岩市监测站)",1482,1524744000,"pm25","7174","68","+0800","2018-04-26 20:00:00","_c_azyk0t0H-5b-bTTSuh1NMdTc9nT3y2tfv56pkA"
32.395,111.04194444444,"Wudang Mountain , Shiyan, Hubei (湖北十堰武当山)",1294,1524740400,"pm25","5398","50","+0800","2018-04-26 19:00:00","_c_az8ihNSs3Uf9rb-HTBBv1na5c93Tv56caNAA"
34.6511,112.3939,"City committee communist party school, Luoyang (洛阳市委党校)",1236,1524744000,"pm25","4330","369","+0800","2018-04-26 20:00:00","_ARoA5f9DTjptZXAv5rSb6ZizL-W4guWnlOWFmuagoQ"
32.50471,113.375587,"shì yī zhǐ chǎng, Zhumadian (驻马店市一纸厂)",1453,1524740400,"pm25","5821","99","+0800","2018-04-26 19:00:00","_AR8A4P9DTjpIZW5hbi_pqbvpqazlupcv5biC5LiA57q45Y6C"
34.3708,107.1586,"Miaogou Village, Baoji (宝鸡庙沟村)",946,1524740400,"pm25","4415","94","+0800","2018-04-26 19:00:00","_ARcA6P9DTjptZXAv5a6d6bihL-W6meayn-adkQ"
39.935377,119.600492,"Qinhuangdao (秦皇岛)",1194,1524740400,"pm25","1456","172","+0800","2018-04-26 19:00:00","_y02s0HD2s_JITUrN1H--fNnzWe1PN81-uqNJH4ifTdn_dNccHZzyz2dPfLa1-_nqmbiU7N71Yt2-p0uWP-1bpqmQWKwQmJmXUZqYl56SmA8A"
36.423,114.24,"Fengfeng mine Inland Revenue Department, Handan (邯郸市峰峰矿区地税局)",525,1524736800,"pm25","4647","167","+0800","2018-04-26 18:00:00","_c_az8khNSs3Uf9m0_mXzjqc7mvSfbt4ARM_n73_as-vpnA3PV_Q93digoaUJAA"
36.6106,109.5056,"Bǎi mǐ dàdào, Yanan (延安百米大道)",968,1524740400,"pm25","4420","68","+0800","2018-04-26 19:00:00","_ARoA5f9DTjptZXAv5bu25a6JL-eZvuexs-Wkp-mBkw"
23.554839,120.345531,"Xingang, Taiwan (台灣新港)",1645,1524744000,"pm25","1624","109","+0800","2018-04-26 20:00:00","_Cwm3Cs7MS0_MSwcA"
16.750102,98.591312,"Mae Pa,Mae Sot,Tak, Thailand (ต.แม่ปะ อ.แม่สอด จ.ตาก)",1554,1524736800,"pm25","9013","97","+0700","2018-04-26 17:00:00","_C_GwerBjqt6DnY0Pdix8sLPjwY7ZD3ZsUHiwYy2y2Cog_8GOKUDhDj2g8gc7Nj3Y0QgA"
37.3753,97.3731,"Delingha, Haixi (海西州德令哈市)",1489,1524744000,"pm25","7571","72","+0800","2018-04-26 20:00:00","_AR0A4v9DTjptZXAv5rW36KW_5beeL-W-t-S7pOWTiOW4gg"
39.02096667,117.6503,"Tanggu Yingkou street, Tianjin (天津塘沽营口道)",942,1524740400,"pm25","708","195","+0800","2018-04-26 19:00:00","_c_azKslMzMvKzNN_unDGs017X0xY-rR_8cvGyQA"
36.5819,101.834,"Silu hospital, Xining (西宁四陆医院)",1485,1524744000,"pm25","7564","117","+0800","2018-04-26 20:00:00","_ARoA5f9DTjptZXAv6KW_5a6BL-Wbm-mZhuWMu-mZog"
33.721,113.322,"Xinhua Hotel, Pingdingshan (平顶山新华旅馆)",1117,1524740400,"pm25","4335","95","+0800","2018-04-26 19:00:00","_AR0A4v9DTjptZXAv5bmz6aG25bGxL-aWsOWNjuaXhemmhg"
36.47111111,115.9547222,"Hongshun Garden, Liaocheng (聊城洪顺花园)",530,1524744000,"pm25","626","158","+0800","2018-04-26 20:00:00","_c_azCs5IzEtPyc9L13_R2PV0fp_-sy2rXi7c9aJr49PZawE"
27.3361,103.7225,"Environment protection office, Zhaotong (昭通环保局)",1525,1524744000,"pm25","7211","76","+0800","2018-04-26 20:00:00","_c_azyk0t0H82Y-3Lhln6z_vWP9k_9-nGBgA"
30.128901,104.627636,"Ziyang (资阳)",963,1524740400,"pm25","5715","80","+0800","2018-04-26 19:00:00","_y02s0NB39rPKTS2I0X-xteXljM0x-lr6mgqJxQpRmZWJeekA"
34.4865888,135.5130716,"Wakamatsudai, Osaka Prefecture, Japan (日本若松台堺市南区)",1186,1524740400,"pm25","1989","55","+0900","2018-04-26 20:00:00","_ARkA5v9KUDrloLrluILljZfljLov6Iul5p2-5Y-w"
43.4569,87.4651,"培训基地, Wulumuqi (乌鲁木齐培训基地)",1498,1524740400,"pm25","9887","42","+0800","2018-04-26 19:00:00","_ASAA3_9DTjptZXAv5LmM6bKB5pyo6b2QL-WfueiureWfuuWcsA"
30.663372,113.16653,"Tianmen (天门)",1178,1497592800,"pm25","3665","-","+0800","2017-06-16 14:00:00","_y02s0HD2s_IoTUrN1H-6ZOXL6St00PhQ6umOpmdT9j_dNQeH_LNpG57O79NUSCxWCMlMzMtNzQMA"
23.4714,116.7519,"Chénghǎizi, Shantou (汕头澄海子站)",1132,1524744000,"pm25","3484","137","+0800","2018-04-26 20:00:00","_ARoA5f9DTjptZXAv5rGV5aS0L-a-hOa1t-WtkOermQ"
23.7233,114.6892,"Old Town, Heyuan (河源老城)",1018,1524744000,"pm25","7031","93","+0800","2018-04-26 20:00:00","_c_azci9NzEtPyc9L13-2afOzXRP0XzQ0Pp3fBwA"
38.817,106.3394,"Shahu Tourism Zone, Shizuishan (石嘴山沙湖旅游区)",1123,1524740400,"pm25","4439","91","+0800","2018-04-26 19:00:00","_ASAA3_9DTjptZXAv55-z5Zi05bGxL-aymea5luaXhea4uOWMug"
36.2789097,133.1977459,"Kitagata, Shimane, Japan (日本国設隠岐酸性雨隠岐郡隠岐の島町)",1798,1524740400,"pm25","3755","21","+0900","2018-04-26 20:00:00","_8wqwejlrwdNNE142L4QwHjeue7p52_Mpu_Sfzt77YsVaqHTrjmcNy1_OXgEA"
29.6588,90.9798,"District radiation station, Lhasa (拉萨区辐射站)",1272,1524744000,"pm25","1388","164","+0800","2018-04-26 20:00:00","_c_azyk0t0H_W3fliwgr9pz27Xuyb8HRDy_PVMwE"
37.88305556,118.5163889,"Hekou  district, Dongying (东营河口区)",485,1524744000,"pm25","553","158","+0800","2018-04-26 20:00:00","_c_azCs5IzEtPyc9L13-yY86LCUv1n23a_LR_8dOeXQA"
22.56263,88.36304,"Kolkata US Consulate, India (कोलकाता अमेरिकी वाणिज्य दूतावास, India)",4504,1524742200,"pm25","7021","107","+0530","2018-04-26 17:00:00","_8_Sz8s7PyU4sSdQPDVZwzs8rLs1JLEkFAA"
25.8417,98.8546,"lú shuǐ No1 middle shcool, Nujiang (怒江州泸水一中)",1140,1524740400,"pm25","7559","102","+0800","2018-04-26 19:00:00","_AR0A4v9DTjptZXAv5oCS5rGf5beeL-azuOawtOS4gOS4rQ"
26.3003,106.805,"Tongmuling, Guiyang (贵阳桐木岭)",1180,1524744000,"pm25","1422","91","+0800","2018-04-26 20:00:00","_ARcA6P9DTjptZXAv6LS16ZizL-ahkOacqOWyrQ"
31.3770839,130.8517219,"Shineicho, Kanoya, Kagoshima, Japan (日本鹿屋鹿屋市)",1847,1524740400,"pm25","2113","55","+0900","2018-04-26 20:00:00","_8wqwerlz_9ON3U93NOlDWAA"
34.5814,105.7281,"jìnbù xiàng, Tianshui (天水进步巷)",1674,1524740400,"pm25","7140","102","+0800","2018-04-26 19:00:00","_ARcA6P9DTjptZXAv5aSp5rC0L-i_m-atpeW3tw"
22.8561,108.316,"Běihú, Nanning (南宁北湖)",1211,1524744000,"pm25","1333","95","+0800","2018-04-26 20:00:00","_c_azyk0t0H_aO_3pukb9pz3Tn-2cBgA"
45.305,130.9817,"Water Company, Jixi (鸡西自来水公司　)",1415,1524744000,"pm25","7257","91","+0800","2018-04-26 20:00:00","_ASAA3_9DTjptZXAv6bih6KW_L-iHquadpeawtOWFrOWPuOOAgA"
40.076816,113.300126,"Datong (大同)",1203,1524740400,"pm25","1466","69","+0800","2018-04-26 19:00:00","_y02s0NB39rPKTS2I0X-6ZPnTCT0x-lr6mgqJxQouiSX5eekA"
47.957556,106.822745,"Bayankhoshuu, Ulaanbaatar (Баянхошуу, Ulaanbaatar)",2600,1524744000,"pm25","9015","630","+0800","2018-04-26 20:00:00","_8_WzCnXSvzDxwoaL_Rf2Xmy9sO9ix8Xmi80A"
24.6861,113.5964,"Qujiang Monitoring Station, Shaoguan (韶关曲江监测站)",980,1524744000,"pm25","4254","168","+0800","2018-04-26 20:00:00","_ASMA3P9DTjpHdWFuZ2Rvbmcv6Z-25YWzL-absuaxn-ebkea1i-ermQ"
35.14583,126.92333,"Seoseok-dong, Dong-gu, Gwangju, South Korea (대한민국동구 서석동 광주)",1689,1524744000,"pm25","1796","78","+0900","2018-04-26 21:00:00","_8w6yci9PzEvPKtV3yc9L100vBQA"
32.1319871,131.5086596,"Kitatakanabe, Miyazaki Prefecture, Japan (日本高鍋町健康づくりセンター児湯郡高鍋町)",1883,1524740400,"pm25","9960","50","+0900","2018-04-26 20:00:00","_8wqweto64dnO9S-bF75cPeNlb_fzKbv04aynjUuf7tr-uHHp48b-x01dj5t2P27e_Lhp_-PmPQA"
36.0417,111.4917,"South Airport, Linfen (临汾南机场)",1089,1519801200,"pm25","3449","-","+0800","2018-02-28 14:00:00","_c_azyk0t0H-yY8uzjfv0n_ZOfzZn19M5uwA"
40.68,114.392,"Huaian EPA, Zhangjiakou (张家口市怀安环保局)",541,1524736800,"pm25","4663","82","+0800","2018-04-26 18:00:00","_ASgA1_9DTjpIZWJlaS_lvKDlrrblj6PluIIv5oCA5a6J546v5L-d5bGAKCop"
30.696,111.268,"Diǎnjūn district, Yichang (宜昌点军区)",1299,1524744000,"pm25","4854","152","+0800","2018-04-26 20:00:00","_c_azyk0t0H-6bs6zGT36z5t2Pm2b_bRnFwA"
44.5462,129.6386,"No. 1 middle school, Mudanjiang (牡丹江第一中学)",1612,1524740400,"pm25","7253","142","+0800","2018-04-26 19:00:00","_AR0A4v9DTjptZXAv54mh5Li55rGfL-esrOS4gOS4reWtpg"
17.38405,78.45636,"Hyderabad US Consulate, India (हैदराबाद अमेरिकी वाणिज्य दूतावास, India)",4505,1524742200,"pm25","7022","137","+0530","2018-04-26 17:00:00","_8_Sz8qhMSS1KTEpM0Q8NVnDOzysuzUksSQUA"
23.7369,109.2317,"lái yě zhāodàisuǒ, Laibin (来宾来冶招待所)",1342,1524744000,"pm25","8933","104","+0800","2018-04-26 20:00:00","_c_azyk0t0H82d-nTdfvAVNu2Z92zn-5rfdbZAAA"
31.081611,109.876333,"jìng tán èr lù, Chongqing (重庆净坛二路)",1472,1524740400,"pm25","9243","91","+0800","2018-04-26 19:00:00","_c_azyk0t0H_Z3vt0V5v-0_aGp3NnP9nV82L7egA"
34.4461957,135.4596132,"Midorigaoka, Izumi, Osaka Prefecture, Japan (日本緑ケ丘小学校和泉市)",1883,1524740400,"pm25","2004","57","+0900","2018-04-26 20:00:00","_AR8A4P9KUDrlkozms4nluIIv57eR44Kx5LiY5bCP5a2m5qCh"
19.26529,110.46556,"haigui middle school, Qionghai (琼海海桂学校)",1506,1524740400,"pm25","7018","68","+0800","2018-04-26 19:00:00","_c_azyk0t0H8-Yc-zrdv1gfjZwqana5c9W7AQAA"
37.9812309,139.2201926,"Tarodai, Niigata, Japan (日本太郎代新潟市北区)",1969,1524740400,"pm25","2434","38","+0900","2018-04-26 20:00:00","_ARwA4_9KUDrmlrDmvZ_luILljJfljLov5aSq6YOO5Luj"
36.293,115.147,"大名县监察局, Handan (邯郸市大名县监察局)",794,1524736800,"pm25","9819","167","+0800","2018-04-26 18:00:00","_ATMAzP9DTjpIZWJlaS_pgq_pg7jluIIvW-iwg-ivleS4rV3lpKflkI3ljr_nm5Hlr5_lsYAoKik"
35.302928,113.926975,"huánbǎo xīyuàn, Xinxiang (新乡环保西院)",1502,1524740400,"pm25","5792","124","+0800","2018-04-26 19:00:00","_ARwA4_9DTjpIZW5hbi_mlrDkuaEv546v5L-d6KW_6Zmi"
18.837729920288,98.972919227081,"City Hall, Chiangmai, Thailand (ศาลากลางเชียงใหม่)",1538,1524736800,"pm25","6817","100","+0700","2018-04-26 17:00:00","_C_GwerBjxYMdmx7sWAomG2GM9gc7Gx7s6HqwY-uDHYvA3OYHO1Y_2LHwwc4OAA"
36.151209,128.449875,"Industrial, Gumi-si, Gyeongbuk, South Korea (대한민국구미시 4공단 경북)",1673,1524744000,"pm25","1778","99","+0900","2018-04-26 21:00:00","_8w6ycq9Mzc9LTyrN1ncvzc3ULc4EAA"
36.869739,126.280761,"Taeangun-myeon, Chungnam, South Korea",1844,1524744000,"pm25","9548","82","+0900","2018-04-26 21:00:00","_8w6ycs4ozUvPS8zVD0lMTcxLL83Tza1Mzc8DAA"
29.4213888,103.551388,"Shawan District Environmental Protection Bureau, Leshan (乐山沙湾区环保局)",1285,1516147200,"pm25","8957","-","+0800","2018-01-17 07:00:00","_ASAA3_9DTjptZXAv5LmQ5bGxL-aymea5vuWMuueOr-S_neWxgA"
13.523511,99.814215,"Regional Environmental Office 8, Thailand (สำนักงานสิ่งแวดล้อมภาคที่ 8 ราชบุรี)",1546,1524736800,"pm25","6818","87","+0700","2018-04-26 17:00:00","_HcrLCYNAAADRViwjWEEKSEOCkOhZkHgyiAiCBz8Ls91MKVn3OI95PUtZ5ZSv7FLJW46cyS_j55aYfJFOZmMjm_xkzGctvYR0Fo9CpoytDELO8Ac"
32.649444444444,110.78,"Riverside Village , Shiyan, Hubei (湖北十堰滨河新村)",1295,1524740400,"pm25","5399","76","+0800","2018-04-26 19:00:00","_ARwA4_9DTjpIdWJlaS_ljYHloLAv5ruo5rKz5paw5p2R"
30.362641,113.454593,"Xiantao (仙桃)",1176,1497592800,"pm25","3663","-","+0800","2017-06-16 14:00:00","_y02s0NB39rPyKE1KzYzRf7J75rOFzfqaConFChGZiXklifkA"
36.0875,111.5025,"Municipal party committee, Linfen (临汾市委)",1092,1524740400,"pm25","3445","187","+0800","2018-04-26 19:00:00","_c_azyk0t0H-yY8uzjfv0n-5oerp8CgA"
34.499995,109.509786,"Weinan (渭南)",1176,1524740400,"pm25","1573","95","+0800","2018-04-26 19:00:00","_y02s0NB39rPKTS2I0X-2Y-3T3ukx-lr6mgqJxQrhqZl5iXkA"
35.703771,138.7127085,"Enzankamishiogo, Koshu, Yamanashi, Japan (日本東山梨甲州市)",1653,1524736800,"pm25","6827","93","+0900","2018-04-26 19:00:00","_ARYA6f9KUDrnlLLlt57luIIv5p2x5bGx5qKo"
32.090333333333,112.21097222222,"Xiangzhou Hangkong Road , Xiangyang, Hubei (湖北襄阳襄州航空路)",1320,1524740400,"pm25","6467","91","+0800","2018-04-26 19:00:00","_c_az8ihNSs3Uf7G05eWMzSDq6fZ5LzpWPV-568X29QA"
31.6411,118.4828,"Tianping Garment Factory, Maanshan (马鞍山天平服装)",935,1524740400,"pm25","3590","162","+0800","2018-04-26 19:00:00","_AR0A4v9DTjptZXAv6ams6Z6N5bGxL-WkqeW5s-acjeijhQ"
31.352859,118.432941,"Wuhu (芜湖)",1083,1524740400,"pm25","1498","158","+0800","2018-04-26 19:00:00","_y02s0NB39rPKTS2I0X_RNefZzmkx-lr6mgqJxQrhpRmlAA"
32.5039,80.0895,"Ngari Prefectural Party Committee, Ngari Sanai (阿里地区阿里地委)",1485,1524740400,"pm25","7070","100","+0800","2018-04-26 19:00:00","_c_azyk0t0H85Y__L9p6nczY87dmFxFk-BQA"
34.5548699,133.3294801,"Ekiyacho Oaza Hojoji, Fukuyama, Hiroshima, Japan (日本駅家東小学校福山市)",2074,1524744000,"pm25","4702","65","+0900","2018-04-26 21:00:00","_AR8A4P9KUDrnpo_lsbHluIIv6aeF5a625p2x5bCP5a2m5qCh"
29.885558333333,114.32367777778,"Yangtze River Industrial Park , Xianning, Hubei (湖北咸宁长江产业园)",1312,1524740400,"pm25","5416","155","+0800","2018-04-26 19:00:00","_AR8A4P9DTjpIdWJlaS_lkrjlroEv6ZW_5rGf5Lqn5Lia5Zut"
35.6039,103.2139,"Environment protection office, Linxiazhou (临夏州环保局)",1690,1524740400,"pm25","7861","102","+0800","2018-04-26 19:00:00","_ARoA5f9DTjptZXAv5Li05aSP5beeL-eOr-S_neWxgA"
33.4376178,113.594631,"guǎngdiàn jú, Luohe (漯河广电局)",1450,1524744000,"pm25","5803","82","+0800","2018-04-26 20:00:00","_c_az8kjNS8zTf7Zn_bNNm_Wf7tz_fMrWpxsbAA"
33.6284,116.9677,"yī zhōng, Suzhou (宿州一中)",1458,1524744000,"pm25","7123","149","+0800","2018-04-26 20:00:00","_c_azyk0t0H-6bv_T7fP0n-xoeLJjLQA"
22.6164,110.1433,"nanjiang No1 middle school, Yulin (玉林南江一中)",1402,1524744000,"pm25","7198","112","+0800","2018-04-26 20:00:00","_c_azyk0t0H_e1_ls3nT9p73Tn22c_2RHw5MdawE"
31.5072,104.7283,"No.3 water company, Mianyang (绵阳三水厂)",1026,1524740400,"pm25","3601","72","+0800","2018-04-26 19:00:00","_c_azyk0t0H--e-vLGZv1n-zofLZhy9O-JgA"
38.299,116.885,"Cangxian Urban Construction Bureau, Cangzhou (沧州市沧县城建局)",523,1524740400,"pm25","685","199","+0800","2018-04-26 19:00:00","_c_az8khNSs3Uf7Zp-dPt857uaAKz-vY_nd_3dPeupxsbAA"
36.070725,129.380278,"Jukdo-dong, Pohang-si, Gyeongbuk, South Korea (대한민국포항시 죽도동 경북)",1772,1524744000,"pm25","4008","160","+0900","2018-04-26 21:00:00","_8w6ycq9Mzc9LTyrN1g_Iz0jMS9ctztT3Ks1OyddNAYoDAA"
28.0797,116.2239,"tóng yuán dǎng xī, Fuzhoushi (抚州桐源党溪)",1466,1524740400,"pm25","7798","152","+0800","2018-04-26 19:00:00","_ARoA5f9DTjptZXAv5oqa5beeL-ahkOa6kOWFmua6qg"
37.5599778,121.2529217,"BDA EPA, Yantai (烟台开发区环保局)",509,1524744000,"pm25","563","166","+0800","2018-04-26 20:00:00","_ASYA2f9DTjpTaGFuZ2Rvbmcv54Of5Y-wL-W8gOWPkeWMuueOr-S_neWxgA"
29.6926,116.0628,"Water Scientific Research Institute, Jiujiang (九江水科所)",1154,1524740400,"pm25","3650","159","+0800","2018-04-26 19:00:00","_c_azyk0t0H-yc-6zjfP1n23Y8nz5xGedDQA"
36.5458,104.1731,"Yuyuan Hotel, Baiyin (白银豫源饭店)",1671,1524740400,"pm25","7137","122","+0800","2018-04-26 19:00:00","_ARoA5f9DTjptZXAv55m96ZO2L-ixq-a6kOmlreW6lw"
41.573734,120.450372,"Chaoyang (朝阳)",1201,1524740400,"pm25","4345","197","+0800","2018-04-26 19:00:00","_y02s0NB39rPKTS2I0X82Z-7LGZtj9LX0NRUSixWcMxLzKxPz0gE"
27.8328,114.9289,"No.2 water factory, Xinyu (新余第二水厂)",1098,1524740400,"pm25","5875","153","+0800","2018-04-26 19:00:00","_ARoA5f9DTjptZXAv5paw5L2ZL-esrOS6jOawtOWOgg"
40.277474,111.204041,"No.29 Middle School, Hohhot (呼和浩特二十九中)",946,1524740400,"pm25","939","37","+0800","2018-04-26 19:00:00","_ASMA3P9DTjptZXB3Y2Yv5ZG85ZKM5rWp54m5L-S6jOWNgeS5neS4rQ"
40.1503,124.4256,"linjiang houjie, Dandong , Dandong (丹东临江后街)",1274,1524740400,"pm25","5221","163","+0800","2018-04-26 19:00:00","_c_azyk0t0H-yY-eTHXOA1JZnG-c_ndD3YuF0AA"
29.473629,121.885564,"Wenfeng Primary School, Xiangshan, Ningbo (宁波象山/文峰小学)",1046,1524564000,"pm25","4689","-","+0800","2018-04-24 18:00:00","_AR0A4v9DTjpOaW5nYm8v6LGh5bGxL-aWh-WzsOWwj-Wtpg"
18.786142045273,100.77952643048,"Municipality Office, Nan, Thailand (สำนักงานเทศบาลเมืองน่าน)",1535,1524726000,"pm25","1867","42","+0700","2018-04-26 14:00:00","_C_GwerBj1YMdmx_smPlgx8YHOxof7Gh_sGMTiLuz4cGO6Q92rHiwYxZYZClYZOGDHdsf7FgLVgZU0wFRDAA"
32.6778,109.0311,"xiāng xī dòng, An'kang (安康香溪洞)",1645,1524740400,"pm25","7855","61","+0800","2018-04-26 19:00:00","_c_azyk0t0H-6rvPpru36L5fNfLZr1bMt8wA"
42.22297,123.726163,"Tieling (铁岭)",1202,1524740400,"pm25","4346","245","+0800","2018-04-26 19:00:00","_y02s0NB39rPKTS2I0X85ufHpprUx-lr6mgqJxQohmak5mXnpAA"
37.32453537,122.1558142,"Woodworking Factory, Weihai (威海木工机械厂)",504,1524744000,"pm25","590","161","+0800","2018-04-26 20:00:00","_ASMA3P9DTjpTaGFuZ2Rvbmcv5aiB5rW3L-acqOW3peacuuaisOWOgg"
32.2040575,114.5272331,"Auditing bureau, Shīhé district, Xinyang (信阳浉河区审计局)",1395,1524744000,"pm25","5814","78","+0800","2018-04-26 20:00:00","_ASMA3P9DTjpIZW5hbi_kv6HpmLMv5rWJ5rKz5Yy6L-WuoeiuoeWxgA"
31.4165955,130.3233103,"Kasedakawabata, Minamisatsuma, Kagoshima, Japan (日本南さつま南さつま市)",1932,1524740400,"pm25","4550","68","+0900","2018-04-26 20:00:00","_8wqweto7_XHj1MeNSx437nu6o0kfmQ8A"
38.98458333,117.3747333,"Jingu Road, Tianjin (天津津沽路)",1003,1524744000,"pm25","707","187","+0800","2018-04-26 20:00:00","_c_azKslMzMvKzNN_tmXps017X2xfDwA"
29.596989783557,119.05327495337,"淳安环保大楼, Chúnān, Hangzhou (杭州市淳安县淳安环保大楼)",839,1524736800,"pm25","4754","127","+0800","2018-04-26 18:00:00","_ASgA1_9DTjpaaGVqaWFuZy_mna3lt57luIIv5rez5a6J546v5L-d5aSn5qW8"
29.5983,106.296,"Huqi, Chongqing (重庆虎溪)",1059,1524744000,"pm25","1349","99","+0800","2018-04-26 20:00:00","_c_azyk0t0H_Z3vt0V5v-i5l9z3atAgA"
46.7432,82.9994,"dōng mén wài xiǎo yóuyuán, Tacheng (塔城地区东门外小游园)",1384,1524744000,"pm25","7247","34","+0800","2018-04-26 20:00:00","_ASYA2f9DTjptZXAv5aGU5Z-O5Zyw5Yy6L-S4nOmXqOWkluWwj-a4uOWbrQ"
37.2808329,111.7806512,"City EPA, Luliang (吕梁市环保局)",1121,1468555200,"pm25","3538","-","+0800","2016-07-15 12:00:00","_c_azyk0t0H86YeqzRY36T3c0Pe9b_2T_3KcbGwA"
37.938413,124.645669,"Baekryeongdo, Incheon, South Korea (대한민국백령도 인천)",1823,1524744000,"pm25","4544","74","+0900","2018-04-26 21:00:00","_8w6y8sxLzkjNz9N3SkzNLqoEstJT8gE"
31.8531,106.7594,"High School, Bazhong (巴中巴中中学)",1342,1524740400,"pm25","7049","61","+0800","2018-04-26 19:00:00","_c_azyk0t0H-6fcuTHWuhFBA9XbsMAA"
37.518314,111.144319,"Luliang (吕梁)",1191,1524740400,"pm25","3546","50","+0800","2018-04-26 19:00:00","_y02s0NB39rPKTS2I0X86YeqzRY0x-lr6mgqJxQo-pTmZiXnpAA"
25.49001,103.796167,"Qujing (曲靖)",1217,1524744000,"pm25","1566","70","+0800","2018-04-26 20:00:00","_y02s0NB39rPKTS2I0X82e9PLudNi9LX0NRUSixUCS7My89IB"
33.3261,105.0822,"hànwáng zhèn gù shuǐ zi, Longnan (陇南汉王镇固水子)",1688,1524740400,"pm25","7155","57","+0800","2018-04-26 19:00:00","_ASAA3_9DTjptZXAv6ZmH5Y2XL-axieeOi-mVh-WbuuawtOWtkA"
32.3743246,129.9956807,"Amakusamachi Takahamaminami, Amakusa, Kumamoto, Japan (日本天草高浜天草市)",2054,1524740400,"pm25","2206","99","+0900","2018-04-26 20:00:00","_8wqwerpk5Yvezqc7mvQhrJerZzzbOgcA"
32.0819444,108.029722,"Hexi vocational, Dazhou (达州河西职中)",1318,1516147200,"pm25","8989","-","+0800","2018-01-17 07:00:00","_ARoA5f9DTjptZXAv6L6-5beeL-ays-ilv-iBjOS4rQ"
13.3622,103.8597,"Siem Reap (ក្រុងសៀមរាប)",,,,"KH:Siem Reap","placeholder",,,
36.067082,120.38264,"Qingdao (青岛)",1336,1524744000,"pm25","1506","154","+0800","2018-04-26 20:00:00","_y02s0HD2swrOSMxLT8nPS9d_OXfS002z9Z_uaHraO_1pzy7Dp_3bdbCqmL0ISOng0txDQPPsZ9N2glSYP9mx9unaZVhVvdzdAqTwmQNXYYTTpi1NTzduhJqhqZBYrBCYCVSRmA8A"
35.215893,113.241823,"Jiaozuo (焦作)",1153,1524740400,"pm25","1527","112","+0800","2018-04-26 19:00:00","_y02s0NB39rPKTS2I0X_esuzJ3jkx-lr6mgqJxQpemYn5VaX5AA"
26.855047,100.227751,"Lijiang (丽江)",1382,1524744000,"pm25","7913","99","+0800","2018-04-26 20:00:00","_y02s0HD2s8pNLdB_smPvs43z9V8s3f-0d_rL5i4dVPGnO5qe7Fj7dH8zmjiEetq_5On8Pk2FxGIFn8yszMS8dAA"
40.711052,120.836932,"Huludao (葫芦岛)",1184,1524740400,"pm25","3478","828","+0800","2018-04-26 19:00:00","_y02s0NB39rPKTS2I0X8xcfWLrmVPN82O0dfS11RILFbwKM0pTUnMBwA"
39.0631,121.9769,"D&D Port, Dalian (大连双D港)",1063,1524744000,"pm25","1267","278","+0800","2018-04-26 20:00:00","_c_azyk0t0H-6ZPmL_fP0n_b3uDzbsR4A"
30.0475,101.9603,"shuǐ qiáo zi, Garzê Zong (甘孜水桥子)",1560,1524740400,"pm25","7055","57","+0800","2018-04-26 19:00:00","_ARcA6P9DTjptZXAv55SY5a2cL-awtOahpeWtkA"
29.3628,104.7547,"Datang Hill, Zigong (自贡大塘山)",1040,1524740400,"pm25","3617","119","+0800","2018-04-26 19:00:00","_c_azyk0t0H_RvurFloX6T5csf7pwxtONGwE"
36.9639,100.9048,"hǎiyàn, xīhǎi, Haibei (海北州海晏县西海镇)",1439,1524744000,"pm25","7567","95","+0800","2018-04-26 20:00:00","_c_azyk0t0H-2dfvTnulPt88DsZ7N7H_at__F0v1A9sup7QA"
21.7431,108.5989,"gǎng qū yī xiǎo, Qinzhou (钦州港区一小)",1396,1524744000,"pm25","7191","114","+0800","2018-04-26 20:00:00","_ARoA5f9DTjptZXAv6ZKm5beeL-a4r-WMuuS4gOWwjw"
24.352036,102.546543,"Yuxi (玉溪)",1189,1524744000,"pm25","1567","97","+0800","2018-04-26 20:00:00","_y02s0NB39rPKTS2I0X_e1_ls16oYfS19TYXEYoXI0opMAA"
43.837883,126.549572,"Jilin (吉林)",1214,1524740400,"pm25","1480","93","+0800","2018-04-26 19:00:00","_y02s0NB39rPKTS2I0X86ofPZvOkx-lr6mgqJxQpemTmZeQA"
33.292471,126.162165,"Gosan-ri, Jeju, South Korea (대한민국고산리 제주)",1610,1524744000,"pm25","4519","43","+0900","2018-04-26 21:00:00","_8w6y8krNKtV3zy9OzNMtygQA"
42.8328,93.4961,"hāmì shīfàn xuéxiào, Kumul (哈密地区哈密师范学校)",1373,1524744000,"pm25","7232","200","+0800","2018-04-26 20:00:00","_c_azyk0t0H86uePp-ranczY87dkF4-zoeNHT_HTtsmcLFgIA"
23.549993,116.372831,"Jieyang (揭阳)",1180,1524744000,"pm25","4339","147","+0800","2018-04-26 20:00:00","_y02s0HD2s3IvTcxLT8nPS9d_1r_25YzN-k92zHm2c9rT1jVPZ6_Vwabg2bQNT1u36ODQi0vq6bp5L1f1PN3Q_3TtMqwKXizd_3LlGuzG7p75bPcM7I7ZMQXk2o65z3ctf7JjLS7DIco0FRKLFbwyUyuBsgA"
29.1341667,118.4047222,"Bureau of Meteorology, Kāihuà, Quzhou (衢州市开化县气象局)",893,1524733200,"pm25","4808","142","+0800","2018-04-26 17:00:00","_AR8A4P9DTjpaaGVqaWFuZy_ooaLlt57luIIv5rCU6LGh5bGA"
39.331595,112.432825,"Shuozhou (朔州)",1187,1524740400,"pm25","3542","53","+0800","2018-04-26 19:00:00","_y02s0NB39rPKTS2I0X82Z8rT7fNi9LX0NRUSixWCM0rzqzLySwE"
17.527465,78.176807,"IDA Pashamylaram, Hyderabad, India",3188,1524166200,"pm25","9144","-","+0530","2018-04-20 01:00:00","_8_Sz8qhMSS1KTEpM0fd0cVQISCzOSMytzEksSswFAA"
44.2967,86.0497,"àiqīng shīgē guǎn, Shihezi (石河子艾青诗歌馆)",1385,1524744000,"pm25","7250","46","+0800","2018-04-26 20:00:00","_ASAA3_9DTjptZXAv55-z5rKz5a2QL-iJvumdkuivl-atjOmmhg"
49.1577,119.7512,"国华电力东, Hulunbuir (呼伦贝尔国华电力东)",1482,1524744000,"pm25","9892","44","+0800","2018-04-26 20:00:00","_ASMA3P9DTjptZXAv5ZG85Lym6LSd5bCUL-WbveWNjueUteWKm-S4nA"
41.9206,126.4047,"xǐ fēng, Baishan (白山喜丰)",1463,1524744000,"pm25","7288","129","+0800","2018-04-26 20:00:00","_c_azyk0t0H8-c-_TjRv1n06b82THBgA"
32.4624587,114.0475141,"pingqiao fenju, Píngqiáo district, Xinyang (信阳平桥区平桥分局)",1397,1524744000,"pm25","5816","117","+0800","2018-04-26 20:00:00","_c_az8kjNS8zTf7J_4csZm_Wf7tz8bOHSpz27YKyOtqcbGwA"
27.8136,99.7064,"Old Town, Diqing (迪庆州古城)",1501,1524744000,"pm25","7227","55","+0800","2018-04-26 20:00:00","_c_azyk0t0H-xf9XTXW1Pt8_Tf9q_5On8PgA"
21.2028,110.4111,"Xiashan Swimming Park, Zhanjiang (湛江霞山游泳场)",986,1524744000,"pm25","4262","95","+0800","2018-04-26 20:00:00","_ASMA3P9DTjpHdWFuZ2Rvbmcv5rmb5rGfL-mcnuWxsea4uOazs-Wcug"
21.958069,120.788928,"Hengchun, Taiwan (台灣恆春)",1779,1524740400,"pm25","1645","47","+0800","2018-04-26 19:00:00","_Cwm38kjNS0_OKM0DAA"
29.2305555,102.357222,"Shimian County Administrative Center, Yaan (雅安石棉县政务中心)",1294,1516147200,"pm25","8966","-","+0800","2018-01-17 07:00:00","_ASMA3P9DTjptZXAv6ZuF5a6JL-efs-ajieWOv-aUv-WKoeS4reW_gw"
28.41012222,77.313775,"Sector16A Faridabad, Faridaba, India",2795,1524742200,"pm25","6971","175","+0530","2018-04-26 17:00:00","_8_SzckssykxJTErUD05NLskvMjRzVIAJpQAA"
30.5489,117.0486,"lián fù huāyuán, Anqing (安庆联富花园)",1331,1524740400,"pm25","7114","167","+0800","2018-04-26 19:00:00","_c_azyk0t0H-6rvPprjb9F41Tnq7vedG18enstQA"
35.24361111,115.4086111,"Mǔdān high-tech zone, Heze (菏泽牡丹高新区)",535,1524744000,"pm25","637","122","+0800","2018-04-26 20:00:00","_ASMA3P9DTjpTaGFuZ2Rvbmcv6I-P5rO9L-eJoeS4uemrmOaWsOWMug"
18.0460318,120.5940777," Mariano Marcos State University, Ilocos Norte, Batac, Philippines",2269,1524747600,"pm25","9107","80","+0800","2018-04-26 21:00:00","_C_CwckosSUzWV_BNLMpMzMsH0cn5xQrBJYklqQqheZllqUXFmSWVOgqeOfkgCb_8opJUAA"
35.5443088,134.8201898,"Chuomachi, Toyooka, Hyogo Prefecture, Japan (日本豊岡市役所豊岡市)",1990,1524740400,"pm25","2036","34","+0900","2018-04-26 20:00:00","_8wqwerGx6-mmhU93NOnDWU_37nzW2QAA"
39.432,118.919,"lè tíng xiàn zònghé zhí xiào, Tangshan (唐山市乐亭县综合职校)",556,1524736800,"pm25","5612","205","+0800","2018-04-26 18:00:00","_ATYAyf9DTjpIZWJlaS_llJDlsbHluIIvW-iwg-ivleS4rV3kuZDkuq3ljr_nu7zlkIjogYzmoKEoKik"
35.973333,126.651417,"Soryong-dong, Gunsan-si, Jeonbuk, South Korea (대한민국군산시 소룡동 전북)",1793,1524744000,"pm25","4036","149","+0900","2018-04-26 21:00:00","_8w6y8krNz0sqzdZ3L80rTszTLc7UD84vqszPS9dNARIA"
14.683085094818,100.87513981078,"Na Phralan Police Station Saraburi, Thailand (สถานีตำรวจภูธรหน้าพระลาน สระบุรี)",1494,1524736800,"pm25","1817","96","+0700","2018-04-26 17:00:00","_JYxRCkBQFAW3Yh1WYAEWxQIIH1KS4kf0at5uZily_Z2mmVNXpRzSyy2jJOnkkVV2aWSRLEOQ83NyG_Ic5JLtb4s4-tEkxE4v"
38.520089,102.188043,"Jinchang (金昌)",1179,1524740400,"pm25","1576","72","+0800","2018-04-26 19:00:00","_y02s0NB39rPKTS2I0X_ZPvHZjJ4YfS19TYXEYgWvzLzkjMS8dAA"
11.55,104.9167,"Phnom Penh (ភ្នំពេញ)",,,,"KH:Phnom Penh","placeholder",,,
39.5166917,112.3048622,"Pingshuo, Shuozhou (朔州平 朔)",1117,1452070800,"pm25","3521","-","+0800","2016-01-06 16:00:00","_c_azyk0t0H82Z8rT7fP0n-7crABkAgA"
39.77313,98.289152,"Jiayuguan (嘉峪关)",1197,1524740400,"pm25","3721","68","+0800","2018-04-26 19:00:00","_y02s0NB39rPKTS2I0X86o_Pp5lVPWzfH6GvpayokFit4ZSZWlqaXJuYBAA"
23.756389,120.677306,"Zhushan, Taiwan (台灣竹山)",1638,1524744000,"pm25","1653","154","+0800","2018-04-26 20:00:00","_Cwm38sooLc5IzAMA"
19.687157,100.19024,"Chiangrai - Gaia Station 01, Thailand",4635,1524744000,"pm25","9450","116","+07:00","2018-04-26 19:00:00","_C_GwSs7ITMxLL0rM1E9PzEzUNTAEAA"
23.4168,103.386,"Monitoring station, Honghe (红河州监测站)",1392,1524744000,"pm25","7557","109","+0800","2018-04-26 20:00:00","_ARoA5f9DTjptZXAv57qi5rKz5beeL-ebkea1i-ermQ"
34.5118144,133.7598897,"Matsue, Kurashiki, Okayama, Japan (日本松江倉敷市)",2103,1524740400,"pm25","2225","119","+0900","2018-04-26 20:00:00","_8wqwetrQ-Wzq9qc7mvSfzd33bON8AA"
31.2659,121.536,"Yangpu Sipiao, Shanghai (上海杨浦四漂)",399,1524744000,"pm25","482","97","+0800","2018-04-26 20:00:00","_c_azCs5IzEvPSMzUfzZ3xbOty57Onv1sTxMA"
45.61,126.615,"Pingfang Light Factory, Haerbin (哈尔滨平房东轻厂)",1012,1524740400,"pm25","1287","84","+0800","2018-04-26 19:00:00","_ASAA3_9DTjptZXAv5ZOI5bCU5ruoL-W5s-aIv-S4nOi9u-WOgg"
50.245146,127.528287,"Heihe (黑河)",1591,1524744000,"pm25","7919","42","+0800","2018-04-26 20:00:00","_y02s0HD2s8pNLdB_uXvis02b9Z_sWvKyYdbTjQ2PGxp0UKWets56tmAhuuCcDS_ntEPUayokFit4pGZmpAIA"
30.202777777778,115.07666666667,"Chenjiawan , Huangshi, Hubei (湖北黄石陈家湾)",1290,1524740400,"pm25","5394","154","+0800","2018-04-26 19:00:00","_c_az8ihNSs3Uf7m75fn8zfovZ3Y8Xbft2c59AA"
25.0492,101.538,"City Economic Development Zone, Chuxiong (楚雄州市经济开发区)",1215,1524740400,"pm25","7554","134","+0800","2018-04-26 19:00:00","_ASMA3P9DTjptZXAv5qWa6ZuE5beeL-W4gue7j-a1juW8gOWPkeWMug"
22.523108,120.561175,"Chaozhou, Taiwan (台灣潮州)",1662,1524744000,"pm25","1644","114","+0800","2018-04-26 20:00:00","_Cwm3cs5IzM_KyC8FAA"
38.851,114.194,"fù píng xiàn huánbǎo jú, Baoding (保定市阜平县环保局)",585,1524736800,"pm25","5641","184","+0800","2018-04-26 18:00:00","_c_az8khNSs3Uf7J_7tN1s57uaNKPfrGh-cX6qU92rI19OWPO052bn_btf963HqRgY4OGliYA"
46.8267,130.3961,"Power plant, Jiamusi (佳木斯发电厂)",1625,1524740400,"pm25","7272","97","+0800","2018-04-26 19:00:00","_ARoA5f9DTjptZXAv5L2z5pyo5pavL-WPkeeUteWOgg"
21.6158,108.3411,"shā wàn, Fangchenggang (防城港沙万)",1393,1524744000,"pm25","7186","109","+0800","2018-04-26 20:00:00","_c_azyk0t0H85Y9PT-X3PdqzXf7Zp5pMd7QA"
27.4948,114.0944,"Wugongshan Stations, Pingxiang (萍乡武功山气象站)",1442,1524740400,"pm25","7774","91","+0800","2018-04-26 19:00:00","_ASAA3_9DTjptZXAv6JCN5LmhL-atpuWKn-WxseawlOixoeermQ"
28.7144444,99.2875,"得荣县公安局, Garzê Zong (甘孜得荣县公安局)",1297,,,"9883","-","+0800",,"_ASAA3_9DTjptZXAv55SY5a2cL-W-l-iNo-WOv-WFrOWuieWxgA"
36.057393,136.2231494,"Toyoshima, Fukui, Fukui, Japan (日本福井福井市)",1901,1524740400,"pm25","2380","55","+0900","2018-04-26 20:00:00","_8wqwer6s_8muqU93NOlDWAA"
32.5,80.1161,"Ngari Station, Ngari Sanai (阿里地区阿里监测站)",1484,1524740400,"pm25","7069","50","+0800","2018-04-26 19:00:00","_c_azyk0t0H85Y__L9p6nczY87dkF5TyfPfHZ1u7nq2cCAA"
29.079059,119.647445,"Jinhua (金华)",1189,1524740400,"pm25","1446","153","+0800","2018-04-26 19:00:00","_y02s0HD2s4rKSM3KTMxL13_ZPvFpb9_THU36T3sbn-ya8mTHWh0c8juans-e-Gxr9_PVM3EpmT0bqF9TIbFYwSszL6M0EQA"
35.4381,129.337633,"Hwasan-ri, Ulju-gun, Ulsan, South Korea (대한민국울주군 화산리 울산)",1765,1524744000,"pm25","3999","147","+0900","2018-04-26 21:00:00","_8w6yCs0pTszTD83JKtVNL83T9yhPBPJ1izIB"
13.173601347345,100.92769331172,"Health Promotion Hospital Ban Khao Hin,Chonburi, Thailand (โรงพยาบาลส่งเสริมสุขภาพตำบลบ้านเขาหิน ชลบุรี)",1549,1524736800,"pm25","8322","63","+0700","2018-04-26 17:00:00","_LYy5DYBAEANboQ4qoAAKQpfw5ARHgHh0CWQ8krcbl8KtRWKNdj2uq5IWiJ1oiZnYiIuYlIk4aJ2_rHH22kOsYhBZXNTM4kjcEpOn9bpHiUF8yo0FMfwln8iL7wc"
31.2108,107.4967,"fènghuáng district, Dazhou (达州凤凰小区)",1079,1524740400,"pm25","7012","97","+0800","2018-04-26 19:00:00","_c_azyk0t0H-xb9_T7fP0n7Yvedq-4emG_qc9uwA"
31.126856,104.398021,"Deyang (德阳)",1169,1524740400,"pm25","1559","149","+0800","2018-04-26 19:00:00","_y02s0NB39rPKTS2I0X-6b_vLGZtj9LX0NRUSixVcUisT89IB"
36.810018,128.621826,"Hyucheon, Yeongju-si, Gyeongbuk, South Korea (대한민국영주시 휴천2동 경북)",1530,1524740400,"pm25","1810","137","+0900","2018-04-26 20:00:00","_8w6ycq9Mzc9LTyrN1o8EMbJKdYszAQ"
22.673081,120.488033,"Pingtung, Taiwan (台灣屏東)",1661,1524744000,"pm25","1643","122","+0800","2018-04-26 20:00:00","_Cwm3CsjMSy8pzUsHAA"
36.537885,138.1229908,"Awasa, Chikuma, Nagano, Japan (日本更埴インターチェンジ千曲市)",1690,1524740400,"pm25","1925","72","+0900","2018-04-26 20:00:00","_8wqwetrb_Gz2pqc7mvSfzd7ydP6Wx01LHjdvfty0_3HznsfNjY-bloO5OwA"
18.252847,109.511909,"Sanya (三亚)",1166,1524740400,"pm25","1555","55","+0800","2018-04-26 19:00:00","_y02s0HD2s8pNLdB_sqPzya5Z-s82bX6yY87TtROer56pgyH1Yul-rFJA_HLfzGc79yloKiQWKwQn5lUmAgA"
13.567696531322,100.78940318041,"National Housing Authority Bangplee, Samut Prakan, Thailand (การเคหะชุมชนบางพลี)",1700,1524740400,"pm25","1843","107","+0700","2018-04-26 18:00:00","_C_GwerCj8cGOTQ92LH6ws-HBjpYHO1Y_2LHhwY6uBzt2PNixEMyY-WDHLLCa9gc75j3YsfTBjq0A"
30.0125,103.009,"Daxing 526, Yaan (雅安大兴526台)",1073,1524740400,"pm25","7006","104","+0800","2018-04-26 19:00:00","_c_azyk0t0H85u_Xpuk79p0uWP23dYmpk9rR_AwA"
33.1842,106.9893,"Hanchuan Machine factory school, Hanzhong (汉中汉川机床厂子校)",1638,1524740400,"pm25","7847","93","+0800","2018-04-26 19:00:00","_c_azyk0t0H-2sfPJjrUg6un2uc_m7Hq6q-tpX9PTtROeLVgIAA"
34.4714,100.2561,"mǎqìn, dàwǔ, Golog (果洛州玛沁县大武镇)",1491,1524744000,"pm25","7569","82","+0800","2018-04-26 20:00:00","_ASMA3P9DTjptZXAv5p6c5rSb5beeL-eOm-aygeWOv-Wkp-atpumVhw"
41.668,115.666,"沽源第一中学, Zhangjiakou (张家口市沽源第一中学)",669,1524722400,"pm25","9685","82","+0800","2018-04-26 14:00:00","_ATYAyf9DTjpIZWJlaS_lvKDlrrblj6PluIIvW-iwg-ivleS4rV3msr3mupDnrKzkuIDkuK3lraYoKik"
47.7317,128.9094,"Forest Authority, Yichun (伊春林管局)",1623,1524740400,"pm25","7269","70","+0800","2018-04-26 19:00:00","_c_azyk0t0H-yp-vZjKX6z-ZNf75u4dONDQA"
31.1278,97.1804,"Qamdo Stations, Qamdo Sanai (昌都地区昌都监测站)",1336,1502877600,"pm25","7061","-","+0800","2017-08-16 18:00:00","_c_azyk0t0H82o-dl896nczY87dkF5TyfPfHZ1u7nq2cCAA"
41.2553,123.15,"xīnhuá yuán, Liaoyang , Liaoyang (辽阳新华园)",1260,1524740400,"pm25","5208","172","+0800","2018-04-26 19:00:00","_c_azyk0t0H-xb-_LGZv1n03b8LS37-nstQA"
23.0786,112.4722,"Qixingyanzi station, Zhaoqing (肇庆七星岩子站)",858,1524740400,"pm25","807","151","+0800","2018-04-26 19:00:00","_ASMA3P9DTjpHdWFuZ2Rvbmcv6IKH5bqGL-S4g-aYn-WyqeWtkOermQ"
43.8228,126.4978,"Electric Power College, Jilin (吉林电力学院)",1120,1524740400,"pm25","4308","85","+0800","2018-04-26 19:00:00","_ARoA5f9DTjptZXAv5ZCJ5p6XL-eUteWKm-WtpumZog"
21.33847,105.3673,"Viet Tri, Vietnam (Tp Việt Trì, Vietnam)",1565,1524744000,"pm25","5506","-","+0700","2018-04-26 19:00:00","_C_OzCstMLVEIKcoEAA"
24.441,98.578,"máng shì jiànshè jú, Dehong (德宏州芒市建设局)",1349,1524744000,"pm25","7226","181","+0800","2018-04-26 20:00:00","_ASAA3_9DTjptZXAv5b635a6P5beeL-iKkuW4guW7uuiuvuWxgA"
41.294176,123.766485,"Benxi (本溪)",1211,1524740400,"pm25","1477","114","+0800","2018-04-26 19:00:00","_y02s0NB39rPKTS2I0X82Z82zXati9LX0NRUSixWcUvMqMgE"
26.647661,106.630154,"Guiyang (贵阳)",1256,1524744000,"pm25","1563","91","+0800","2018-04-26 20:00:00","_y02s0NB39rPKTS2I0X-xZevLGZtj9LX0NRUSixXcSzMrE_PSAQ"
37.348602,126.727109,"Sihwa, Siheung-si, Gyeonggi, South Korea (대한민국시흥시 시화공단 경기)",1605,1524744000,"pm25","1705","149","+0900","2018-04-26 21:00:00","_8w6ycq9Mzc9LT8_UD87MSC3NS9ctzgQA"
33.567736,114.011061,"luòhé dàxué, Luohe (漯河漯河大学)",1448,1524744000,"pm25","5801","80","+0800","2018-04-26 20:00:00","_c_az8kjNS8zTf7Zn_bNNm6HU0yXLn65dBgA"
40.919,115.838,"Chìchéng běishān, Zhangjiakou (张家口市赤城北山)",543,1524726000,"pm25","4665","68","+0800","2018-04-26 15:00:00","_ASUA2v9DTjpIZWJlaS_lvKDlrrblj6PluIIv6LWk5Z-O5YyX5bGxKCop"
19.840204,75.244935,"More Chowk, Waluj, Aurangabad, India",3190,1524166200,"pm25","9146","-","+0530","2018-04-20 01:00:00","_8_SzciwtSsxLT0xKTNH3zS9KVXDOyC_P1lEIT8wpzQIA"
32.6502777,105.88,"Dazhong Bazi station, Guangyuan (广元大中坝子站)",1305,1516150800,"pm25","8976","-","+0800","2018-01-17 08:00:00","_AR0A4v9DTjptZXAv5bm_5YWDL-Wkp-S4reWdneWtkOermQ"
25.0124,102.743,"Guānshàng, Kunming (昆明关上)",1078,1524744000,"pm25","1377","157","+0800","2018-04-26 20:00:00","_c_azyk0t0H82o-3ZjD79p62bn-zoAgA"
30.8425,108.367777,"Zhoujiaba, Chongqing (重庆周家坝)",1470,1524740400,"pm25","9241","91","+0800","2018-04-26 19:00:00","_c_azyk0t0H_Z3vt0V5v-04krnq7b9nTuXAA"
28.454027,108.985,"Xiushan County High School, Chongqing (重庆秀山县高级中学)",1481,1524740400,"pm25","9252","76","+0800","2018-04-26 19:00:00","_ASMA3P9DTjptZXAv6YeN5bqGL-engOWxseWOv-mrmOe6p-S4reWtpg"
34.7184738,137.5316173,"Kibi, Kosai, Shizuoka, Japan (日本湖西市役所湖西市)",1897,1524740400,"pm25","2366","68","+0900","2018-04-26 20:00:00","_8wqwerZz2oul-5_uaNKHs57u3fmsswEA"
24.6967,108.1009,"shì jí kòng zhōngxīn, Hechi (河池市疾控中心)",1341,1524744000,"pm25","7205","57","+0800","2018-04-26 20:00:00","_AR0A4v9DTjptZXAv5rKz5rGgL-W4gueWvuaOp-S4reW_gw"
29.2313,91.7608,"Shannan Stations, Lhoka (山南地区山南监测站)",1338,1502877600,"pm25","7063","-","+0800","2017-08-16 18:00:00","_c_azyk0t0H-6cePT3ulP52x42rMLynk-e-Kzrd3PV88EAA"
37.543106,127.041278,"Seongdong-gu, Seoul, South Korea (대한민국성동구 서울)",1671,1524744000,"pm25","1682","154","+0900","2018-04-26 21:00:00","_8w6yCk7NL83RB5J56SlArJteCgA"
37.145137,128.220664,"Seobu-dong, Jecheon-si, Chungbuk, South Korea (대한민국제천시 서부동 충북)",1641,1524744000,"pm25","1745","107","+0900","2018-04-26 21:00:00","_8w6ycs4ozUtPKs3W90pNzkjNz9MtzgQA"
46.0707,122.0931,"北滨河, Hinggan Meng (兴安盟北滨河)",1481,1524744000,"pm25","9891","70","+0800","2018-04-26 20:00:00","_ARoA5f9DTjptZXAv5YW05a6J55ufL-WMl-a7qOaysw"
38.4975,106.2328,"Helanshan East Road, Yinchuan (银川贺兰山东路)",1064,1524740400,"pm25","1411","43","+0800","2018-04-26 19:00:00","_AR0A4v9DTjptZXAv6ZO25bedL-i0uuWFsOWxseS4nOi3rw"
28.45055556,119.4741667,"松阳监测楼, Sōngyáng, Lishui (丽水市松阳县松阳监测楼)",919,1524736800,"pm25","4834","164","+0800","2018-04-26 18:00:00","_ASUA2v9DTjpaaGVqaWFuZy_kuL3msLTluIIv5p2-6Ziz55uR5rWL5qW8"
19.34972,108.68472,"Changjiang pawn Bay, Changjiangxian (昌江县昌江棋子湾)",1521,1524740400,"pm25","8638","74","+0800","2018-04-26 19:00:00","_c_azyk0t0H82o-fZxvlP-_ZDWc8Wdz9dO-HZzn0A"
31.9286,102.1755,"State Institute of Agricultural Science, Ngawa Zong (阿坝州州农科所)",1344,1524740400,"pm25","7550","57","+0800","2018-04-26 19:00:00","_c_azyk0t0H85Y__TuXOfbp-nD8RP2-Y8Xz7xWWcDAA"
13.0339,77.51321111,"Peenya, Bangalore, India",4497,1524742200,"pm25","3758","130","+0530","2018-04-26 17:00:00","_8_SzckrMS0_MyS9K1Q9ITc2rTAQA"
18.247769049494,99.766891808156,"Health Promotion Hospital Sob Pad, Lampang, Thailand (โรงพยาบาลส่งเสริมสุขภาพตำบลบ้านสบป้าด ลำปาง)",1551,1524733200,"pm25","8324","119","+0700","2018-04-26 16:00:00","_NYuxDYAwEANXYQ4mYAAGQjSBHgpAQgGUhpJQ-LfxKOQt0Vj--3Pb1LSeuIhA7MRJPMSqTMRNG_xlnXfXXuJQB1GGUWYZzkTWMHnaKL7ILHD7yVTJyI78Dh8"
21.4689,111.0286,"Maogang sub-office EPB, Maoming (茂名市环保局茂港分局)",958,1524740400,"pm25","4264","85","+0800","2018-04-26 19:00:00","_c_azci9NzEtPyc9L13_R0_R0Qq_-0x1Nz_vWP9k_9-nGBqDQsx3rn3a0AdkA"
26.8733,112.6197,"City committee communist party school, Hengyang (衡阳市委党校)",1552,1524740400,"pm25","7820","112","+0800","2018-04-26 19:00:00","_ARoA5f9DTjptZXAv6KGh6ZizL-W4guWnlOWFmuagoQ"
27.489522,83.279089,"Lumbini, Nepal",1803,1495797300,"pm25","9306","-","+0545","2017-05-26 17:00:00","_8wuw8inNTcrMywQA"
28.0439611,105.808261,"Gulin County Construction Bureau, Luzhou (泸州古蔺县建设局)",1300,1511762400,"pm25","8971","-","+0800","2017-11-27 13:00:00","_ASAA3_9DTjptZXAv5rO45beeL-WPpOiUuuWOv-W7uuiuvuWxgA"
34.6255304,135.6019441,"Shimizucho, Yao, Osaka Prefecture, Japan (日本八尾保健所八尾市)",1190,1524740400,"pm25","1996","76","+0900","2018-04-26 20:00:00","_8wqwetq6-umGfU93NOlDWE_2z33auPRZZwMA"
25.105417,121.515389,"Shilin, Taiwan (台灣士林)",1611,1524744000,"pm25","1596","70","+0800","2018-04-26 20:00:00","_Cwm3Cs7IzMjJzAMA"
39.278,115.796,"定兴县教育局, Baoding (保定市定兴县教育局)",714,1524736800,"pm25","9739","180","+0800","2018-04-26 18:00:00","_c_az8khNSs3Uf7J_7tN1s57uaNKPfrGh-cX6qU92rI0FibRuedq3_9nUmS-aNj3d2KChpQkA"
33.626944,119.012222,"Huaiyin Monitoring Station, Huai'an (淮安淮阴区监测站)",1192,1524744000,"pm25","888","153","+0800","2018-04-26 20:00:00","_c_az8spMzEsvLtV_tn3d03WdIOrljC1Pe3Y9nz3x2dbu56tnAgA"
37.5247935,129.1140452,"Cheongok-dong, Donghae-si, Gangwon, South Korea (대한민국동해시 천곡동 강원)",1631,1524744000,"pm25","1732","89","+0900","2018-04-26 21:00:00","_8w6yck_MSy_Pz9N3yc9Lz0hM1S3OBAA"
46.6527,126.9636,"Party and government office center, Suihua (绥化党政办公中心)",1633,1524740400,"pm25","7280","93","+0800","2018-04-26 19:00:00","_ASAA3_9DTjptZXAv57ul5YyWL-WFmuaUv-WKnuWFrOS4reW_gw"
29.6376,94.3681,"Nyingchi Stations, Nyingchi (林芝地区林芝监测站)",1343,1502877600,"pm25","7071","-","+0800","2017-08-16 18:00:00","_c_azyk0t0H82b_qLrrlP52x42rMLynk-e-Kzrd3PV88EAA"
24.818055556,118.15694444,"Xidong, Xiamen (厦门溪东)",1015,1524740400,"pm25","1300","147","+0800","2018-04-26 19:00:00","_c_azyk0t0H_at-zl9BX6z3aterJjDgA"
26.0867964,119.3081791,"Wusi North Road, Fuzhou (福州五四北路)",1076,1524744000,"pm25","944","132","+0800","2018-04-26 20:00:00","_AR0A4v9DTjptZXB3Y2Yv56aP5beeL-S6lOWbm-WMl-i3rw"
26.160469,119.949875,"Matsu, Taiwan (台灣馬祖)",1601,1524744000,"pm25","1657","112","+0800","2018-04-26 20:00:00","_Cwm38k0sqSoFAA"
24.4674,117.6336,"Dajiuhu, Zhangzhou (漳州九湖)",1703,1524740400,"pm25","7168","122","+0800","2018-04-26 19:00:00","_c_azyk0t0H-2Z_PT7fP0n-yc-2znNAA"
16.074,108.217,"Da Nang, Vietnam (TP Đà Nẵng, Vietnam)",1558,1524744000,"pm25","1584","86","+0700","2018-04-26 19:00:00","_C_OzcklU8EvMSwcA"
33.369248,131.541766,"Hayami District, Oita Prefecture, Japan (日本日出町鷹匠速見郡日出町)",2360,1524740400,"pm25","6934","63","+0900","2018-04-26 20:00:00","_8wqwetkw_8Wy7pfNC59NX_q0fdfzKbv04ayX23c-7VkAAA"
26.2218696,127.7578608,"Yonagusuku, Okinawa, Japan (日本西原中頭郡西原町)",1869,1524740400,"pm10","2487","34","+0900","2018-04-26 20:00:00","_8wqwerJj7csFa182L3yxdP_TvvnPp-zSh7AA"
37.347,115.961,"Gucheng County , Hengshui (衡水市故城县县政府)",627,1524736800,"pm25","5685","181","+0800","2018-04-26 18:00:00","_ATMAzP9DTjpIZWJlaS_ooaHmsLTluIIvW-iwg-ivleS4rV3mlYXln47ljr_ljr_mlL_lupwoKik"
30.624719,114.370058,"Qingshan Ganghua, Wuhan (武汉青山钢花)",1281,1524744000,"pm25","908","157","+0800","2018-04-26 20:00:00","_c_azCi_NSMzTfzl30tONG19OWvSiayMA"
25.3636,85.0755,"IGSC Planetarium Complex, Patna, India",3074,1524742200,"pm25","8674","153","+0530","2018-04-26 17:00:00","_8_SzCkgsyUvU93QPdlYIyEnMSy1JLMoszVVwzs8tyEmtAAA"
29.536944,108.766111,"Government Conference Center, Chongqing (重庆政府会议中心)",1477,1524740400,"pm25","9248","61","+0800","2018-04-26 19:00:00","_ASAA3_9DTjptZXAv6YeN5bqGL-aUv-W6nOS8muiuruS4reW_gw"
50.2486,127.4961,"Department of Transportation, Heihe (黑河交通局　)",1593,1524744000,"pm25","7276","42","+0800","2018-04-26 20:00:00","_c_azyk0t0H-5e-KzTZv1n-xa8rJh1tONDY8bGgA"
34.466073,136.8477978,"Arashimacho, Toba, Mie, Japan (日本鳥羽高校鳥羽市)",1591,1524736800,"pm25","2194","25","+0900","2018-04-26 19:00:00","_8wqwerl56fN9e5_uaNKHsF6unvFswUIA"
26.4703088,80.3251749,"Nehru Nagar, Kanpur, India",3226,1524745800,"pm25","8187","127","+0530","2018-04-26 18:00:00","_8_Sz8k7MKygt0vdLzSgqVfBLTE8sAgA"
35.22305556,115.5258333,"Sewage treatment plant, Heze (菏泽污水处理厂)",514,1524744000,"pm25","635","107","+0800","2018-04-26 20:00:00","_ASMA3P9DTjpTaGFuZ2Rvbmcv6I-P5rO9L-axoeawtOWkhOeQhuWOgg"
19.07283,72.88261,"Mumbai US Consulate, India (मुंबई अमेरिकी वाणिज्य दूतावास, India)",4503,1524742200,"pm25","7020","63","+0530","2018-04-26 17:00:00","_8_Sz8i3NTUrM1A8NVnDOzysuzUksSQUA"
23.971306,121.599769,"Hualien, Taiwan (台灣花蓮)",1780,1524740400,"pm25","1647","54","+0800","2018-04-26 19:00:00","_Cwm38ihNzMlMzQMA"
27.712463,85.315704,"US Embassy, Phora Durbar, Kathmandu, Nepal",1386,1524741300,"pm25","9469","177","+0545","2018-04-26 17:00:00","_8wuw8k4sychNzEsp1Q_IyC9KVHApLUpKLNIPDVZwzU1KLC6uBAA"
28.2169,116.9983,"sānchuān shuǐbiǎo, Yingtan (鹰潭三川水表)",1451,1524740400,"pm25","7783","151","+0800","2018-04-26 19:00:00","_ARoA5f9DTjptZXAv6bmw5r2tL-S4ieW3neawtOihqA"
44.0297,87.2717,"New government center, Sanji (昌吉州新区政务中心)",1331,1524744000,"pm25","7235","91","+0800","2018-04-26 20:00:00","_ASMA3P9DTjptZXAv5piM5ZCJ5beeL-aWsOWMuuaUv-WKoeS4reW_gw"
27.0641666,102.748611,"Zhenwu Center, Liangshan (凉山政务中心)",1332,1516147200,"pm25","9003","-","+0800","2018-01-17 07:00:00","_c_azyk0t0H_a3vl040b9Z1P2P-1a-GTH2qf7mwE"
29.2718,88.8876,"Shigatse Stations, Xigaze (日喀则地区日喀则监测站)",1340,1502877600,"pm25","7065","-","+0800","2017-08-16 18:00:00","_c_azyk0t0H82fenTaQ1PO2Y-nbPhac8uBP_57InPtnY_Xz0TAA"
38.9389,100.4497,"kē wěi, Zhangye (张掖科委)",1679,1524740400,"pm25","7145","132","+0800","2018-04-26 19:00:00","_c_azyk0t0H-6Z8Gzvmn6z5dPfLp8CgA"
23.6502,113.6246,"Tianhu, Guangzhou (广州天湖)",948,1524744000,"pm25","781","91","+0800","2018-04-26 20:00:00","_c_azci9NzEtPyc9L13-6c__T7fP0ny5Z-WznNAA"
46.619,131.1651,"nánxiǎo shì, Shuangyashan (双鸭山南小市)",1619,1524740400,"pm25","7265","76","+0800","2018-04-26 19:00:00","_c_azyk0t0H_a3_Nyx9qnGzfqP-2d_nRD_9MdTQA"
26.2920639,73.037911111111,"Collectorate Jodhpur, Jodhpur, India",3167,1524166200,"pm25","8675","-","+0530","2018-04-20 01:00:00","_8_Sz8spPySgoLdJ3zs_JSU0uyS9KLElVgAoCAA"
17.6599188,75.9063906,"Solapur, Solapur, India",3180,1524166200,"pm25","8729","-","+0530","2018-04-20 01:00:00","_8_SzCs7PSSwoLdKH0gA"
29.357104,113.128958,"Yueyang (岳阳)",1157,1524740400,"pm25","1535","152","+0800","2018-04-26 19:00:00","_y02s0NB39rPKTS2I0X-6afPLGZtj9LX0NRUSixUiS1MrE_PSAQ"
23.2536,116.4019,"Chaonanzi Station, Shantou (汕头潮南子站)",975,1524744000,"pm25","4292","114","+0800","2018-04-26 20:00:00","_ASAA3_9DTjpHdWFuZ2Rvbmcv5rGV5aS0L-a9ruWNl-WtkOermQ"
43.9167,125.323,"Food Factory, Changchun (长春食品厂)",995,1524740400,"pm25","1268","85","+0800","2018-04-26 19:00:00","_c_azyk0t0H85df-zGUv1Xy6e_3Ry49O-JgA"
23.8822,100.0869,"City EPA, Lincang (临沧市环保局)",1487,1524744000,"pm25","7217","147","+0800","2018-04-26 20:00:00","_ARoA5f9DTjptZXAv5Li05rKnL-W4gueOr-S_neWxgA"
46.58931,125.103784,"Daqing (大庆)",1144,1524740400,"pm25","1483","68","+0800","2018-04-26 19:00:00","_y02s0NB39rPKTS2I0X-6ZPnTXW0x-lr6mgqJxQouiYWZeekA"
34.596544,119.221282,"Lianyungang (连云港)",1347,1524744000,"pm25","1491","155","+0800","2018-04-26 20:00:00","_y02s0HD2s_LKTMxLLy7Vf7F_3pNdE5_tWK-DTVD_6Y6m57MnPtva_Xz1TOwqnm1Z9XL6imdb9j1t3_Wss0FTIbFYwQeoqrI0Lx2oFgA"
33.402778,120.117778,"Yancheng power station , Yancheng (盐城盐城电厂)",1134,1524744000,"pm25","889","153","+0800","2018-04-26 20:00:00","_c_az8spMzEsvLtV_PnvC0_l9UOr5lK1P-5oA"
25.454085,119.007777,"Putian (莆田)",3555,1524744000,"pm25","7887","153","+0800","2018-04-26 20:00:00","_y02s0HD2s8pNLdB_0df2fMoG_Re9U57O73vas-vJ7slPJ_S92L5eB00BmHq6o-n57InPtnY_Xz0TTcGTHXOeztn8bMOWp7smayokFisElJZkJuYBAA"
26.6946,119.5001,"jīn hán shuǐkù, Ningde (宁德金涵水库)",1485,1524744000,"pm25","7177","160","+0800","2018-04-26 20:00:00","_ARoA5f9DTjptZXAv5a6B5b63L-mHkea2teawtOW6kw"
23.796373,90.424614,"Dhaka US Consulate, Bangladesh (ঢাকা কনস্যুলেট, Bangladesh)",2024,1524744000,"pm25","8781","95","+0600","2018-04-26 18:00:00","_c3KxcslIzE7UDw1WcM7PKy7NSSxJBQA"
16.445329,102.835251,"Khonkaen, Thailand (ส่วนอุทกวิทยา สำนักงานทรัพยากรน้ำภาค 4 ขอนแก่น)",1693,1524740400,"pm25","3688","69","+0700","2018-04-26 18:00:00","_C_GwerBj1YOdHQ92LH-wY-aDHWsf7NjxYMf0BzsawSJbwOxFD3ZsUgCp27EZrGgjWLodKArmAlUsBgvOgygFyy4GSe3sBGtZABZsUTABGtIEtgMo1QhSBrJ4JgA"
13.934197,101.586965,"Tha Tum, Si Maha Phot, Prachin Buri, Thailand (ต.ท่าตูม อ.ศรีมหาโพธิ จ.ปราจีนบุรี)",1727,1524740400,"pm25","9014","29","+0700","2018-04-26 18:00:00","_JYvBCYRAFMVasQILsAILsKI9TQOy6oIgXgTZiyhkukkpfsfjy0u6tpG-lq85yRFDsiyV_ANvssoVQPbnzx-ZZZAzlBTKryhRpiKOMglvdwM"
36.11638889,117.1013889,"ICT Technology, Taian (泰安信通科技)",515,1524744000,"pm25","588","147","+0800","2018-04-26 20:00:00","_c_azCs5IzEtPyc9L13-2ecPTdZ36T_YvfNkw6_nyic-6GgA"
27.238893,111.467791,"Shaoyang (邵阳)",3042,1524740400,"pm25","7906","70","+0800","2018-04-26 19:00:00","_y02s0HD2s8pNLdB_2bT15YzN-k93ND3Z0fBkx1odDPHneyc8XbLlaV8TFqm-9U_2z326sQFT6mnPtKfbl2LV9WzDlqdz5j_rbNBUSCxWCM5IzK9MzEsHAA"
19.5508,110.802,"City Land Resources Bureau office environment , Wenchang (文昌市国土环境资局办公楼)",1486,1524740400,"pm25","5248","68","+0800","2018-04-26 19:00:00","_ASwA0_9DTjptZXAv5paH5piML-W4guWbveWcn-eOr-Wig-i1hOWxgOWKnuWFrOalvA"
31.980175,120.894339,"Nantong (南通)",1301,1524740400,"pm25","1490","186","+0800","2018-04-26 19:00:00","_y02s0HD2s_LKTMxLLy7Vf9o7_WXDLDDV3KWDKfFi5s5nC5dikXg6v-_JjrVYJJ7NmP9s57QXXRufzl6rqZBYrOCXmFeSn5cOAA"
36.650997,117.120497,"Jinan (济南)",1294,1524744000,"pm25","1505","161","+0800","2018-04-26 20:00:00","_y02s0HD2swrOSMxLT8nPS9d_trXvae90_ac7mp7Pnvhsa_fz1TN1sCrYuPHJjjnPd_eD-GuXvZy5CKuyZ5s7n87ve7pz_9M5u7AqeL584tOdm551NuCx5eWmxhfNe7EraJsDNAGX9mdzdj3d1fVkV8_Tvibs2ls3PN8_5VlXw7MFCzUVEosVvDLzEvMA"
34.58055556,117.7352778,"Taierzhuang EPA, Zaozhuang (枣庄台儿庄环保局)",501,1524744000,"pm25","542","152","+0800","2018-04-26 20:00:00","_c_azCs5IzEtPyc9L1382b_HTXS36T_s3PG3ZD2Q971v_ZP_cpxsbAA"
26.83399722,80.8917361,"Talkatora, Lucknow, India",2714,1524742200,"pm25","8188","212","+0530","2018-04-26 17:00:00","_8_Sz8ilNzs7LL9cPSczJTizJL0oEAA"
30.9431,118.7175,"BDA Station, Xuancheng (宣城开发区子站)",1469,1524744000,"pm25","7136","161","+0800","2018-04-26 20:00:00","_AR0A4v9DTjptZXAv5a6j5Z-OL-W8gOWPkeWMuuWtkOermQ"
35.4569687,136.7719711,"Fukumitsuhigashi, Gifu, Gifu, Japan (日本岐阜北部岐阜市)",1958,1524740400,"pm25","2224","68","+0900","2018-04-26 20:00:00","_8wqwerppwssZc57uaNKHsnqmv2xeAQA"
37.8569773,127.7500616,"Seoksa-dong, Chuncheon-si, Gangwon, South Korea (대한민국춘천시 석사동 강원)",1579,1524744000,"pm25","3978","109","+0900","2018-04-26 21:00:00","_8w6yck_MSy_Pz9N3zijNS85Izc_TLc7UD07Nzy5O1E3Jz0sHAA"
39.6969,106.8089,"Forestry Bureau, Wuhai (乌海市林业局)",1433,1524744000,"pm25","7298","82","+0800","2018-04-26 20:00:00","_ARoA5f9DTjptZXAv5LmM5rW3L-W4guael-S4muWxgA"
12.99251389,80.23744722,"IIT, Chennai, Chennai, India",3225,1524745800,"pm25","8184","160","+0530","2018-04-26 18:00:00","_8_Szcs5IzctLzNT39AwBAA"
27.994267,120.699367,"Wenzhou (温州)",1184,1524740400,"pm25","1441","155","+0800","2018-04-26 19:00:00","_y02s0HD2s4rKSM3KTMxL13-2Y-XT7fOe7mjSf9o7_dnWZTo4JHc0PV89E4fk88nrn_ZMxyH5ct_MZzv34db5bOt2TYXEYoXw1LyqjPxSAA"
30.2005555,103.527777,"Pujiang County Party School, Chengdu (成都蒲江县委党校)",1545,1524744000,"pm25","9484","127","+0800","2018-04-26 20:00:00","_ASAA3_9DTjptZXAv5oiQ6YO9L-iSsuaxn-WOv-WnlOWFmuagoQ"
23.141191,113.258374,"Guangzhou (广州)",599,1524740400,"pm25","1449","170","+0800","2018-04-26 19:00:00","_y02s0HAvTcxLT8nPS9cHs6oy8kv1Q4OT8_OKS3MSS1J1EPJPd-5_un2e_oveKc927nuxdP-zuRMxZZ-2rnk6e-3Tzl5MqZe7Jj_bOU1TIbFYAW4VAA"
37.70805,126.28135,"Seokmo-ri, Incheon, South Korea (대한민국석모리 인천)",1822,1524744000,"pm25","4542","99","+0900","2018-04-26 21:00:00","_8w6y8sxLzkjNz9MPTs3Pzs3XLcoEAA"
34.716446,135.3890228,"Mukogawacho, Amagasaki, Hyogo Prefecture, Japan (日本武庫川尼崎市)",1981,1524740400,"pm10","2027","76","+0900","2018-04-26 20:00:00","_ARYA6f9KUDrlsLzltI7luIIv5q2m5bqr5bed"
29.328916,107.751833,"Hibiscus Road, Chongqing (重庆芙蓉中路)",1480,1524740400,"pm25","9251","65","+0800","2018-04-26 19:00:00","_c_azyk0t0H_Z3vt0V5v-i66ZLyZ3Ptmx9sX29QA"
16.4095395,120.5948075,"Burnham Park, Baguio City, Philippines",2271,1524747600,"pm25","9566","63","+0800","2018-04-26 21:00:00","_C_CwckpML83MV3DOLKnUdyotystIzFUISCzKBgA"
27.3033,111.5239,"shì shuǐtǔ suǒ, Shaoyang (邵阳市水土所)",1555,1524740400,"pm25","7823","63","+0800","2018-04-26 19:00:00","_c_azyk0t0H_ZtPXljM36T3c0Pduw5emc-c86GwA"
25.5035,103.7897,"Environmental Monitoring Station, Qujing (曲靖环境监测站)",1198,1524744000,"pm25","4302","70","+0800","2018-04-26 20:00:00","_AR0A4v9DTjptZXAv5puy6Z2WL-eOr-Wig-ebkea1i-ermQ"
31.727222222222,113.35861111111,"City committee communist party school, Suizhou, Hubei (湖北随州市委党校)",1314,1524740400,"pm25","6329","65","+0800","2018-04-26 19:00:00","_ARwA4_9DTjpIdWJlaS_pmo_lt54v5biC5aeU5YWa5qCh"
21.481254,109.119927,"Beihai (北海)",1311,1524744000,"pm25","1553","124","+0800","2018-04-26 20:00:00","_y02s0NB39rPKTS2I0X_aM_3Z1u0x-lr6mgqJxQpOqZkZiZkA"
27.19865833,78.00598056,"Sanjay Palace, Agra, India",4498,1524742200,"pm25","8186","97","+0530","2018-04-26 17:00:00","_8_SzckwvStQPTszLSqxUCEjMSUxOBQA"
33.9322534,133.280434,"Hongo, Niihama, Ehime, Japan (日本中村新居浜市)",1839,1524740400,"pm25","2080","82","+0900","2018-04-26 20:00:00","_ARYA6f9KUDrmlrDlsYXmtZzluIIv5Lit5p2R"
29.389,106.513,"Yuxin Street, Chongqing (重庆鱼新街)",1069,1524744000,"pm25","1359","117","+0800","2018-04-26 20:00:00","_c_azyk0t0H_Z3vt0V5v-y417nk3b8GLhdAA"
41.949,117.756,"围场自来水公司, Chengde (承德市围场自来水公司)",665,1524722400,"pm25","9680","80","+0800","2018-04-26 14:00:00","_ATYAyf9DTjpIZWJlaS_mib_lvrfluIIvW-iwg-ivleS4rV3lm7TlnLroh6rmnaXmsLTlhazlj7goKik"
38.315,114.367,"Líng shòu gōngshuǐ, Shijiazhuang (石家庄市灵寿供水)",511,1524736800,"pm25","4633","181","+0800","2018-04-26 18:00:00","_ASUA2v9DTjpIZWJlaS_nn7PlrrbluoTluIIv54G15a-_5L6b5rC0KCop"
31.910833,119.904722," Ānjiā, Changzhou (常州安家)",1119,1524744000,"pm25","875","179","+0800","2018-04-26 20:00:00","_c_az8spMzEsvLtV_umPH0-3z9J-u63y6bhsA"
41.9228,123.3783,"Liaoning University, Shenyang (沈阳辽大)",994,1524740400,"pm25","1257","170","+0800","2018-04-26 19:00:00","_c_azyk0t0H-2qePljM36L_btfbpkOQA"
40.775,118.17,"Chengde County EPA, Chengde (承德市承德县环保局)",544,1524736800,"pm25","4666","97","+0800","2018-04-26 18:00:00","_c_az8khNSs3Uf9a5_-m-7U93NMFYffuf961_sn_u040NGlqaAA"
32.5340887,112.3656831,"Environment protection office, Nanyang (南阳环保局)",1444,1524744000,"pm25","5804","76","+0800","2018-04-26 20:00:00","_c_az8kjNS8zTf9o7_eWMzfrP-9Y_2T_36cYGAA"
33.3903905,132.9389777,"Tarogawa, Kochi Prefecture, Japan (日本国設檮原酸性雨高岡郡檮原町)",2045,1524740400,"pm25","8335","55","+0900","2018-04-26 20:00:00","_8wqwerl6xtNNC182L3y2at3TvvnPp-zSfzp774sVayH8l607njUsfzl7BQA"
7.8816363400512,98.394290593566,"Municipal Health Center 1, Phuket, Thailand (ศูนย์บริการสาธารณสุข 1 กองการแพทย์ เทศบาลนครภูเก็ต)",1500,1524736800,"pm25","1827","20","+0700","2018-04-26 17:00:00","_RY29CYBAGENXuRVsncABHEhFsLET8acQUYRDsBGLfNtkFM-I2CXh8ZImMeEJIwZiodXESKzEReTEqbwr9F9ttIAoXOSEHUT18xbCRHSv0NEyFS91IDadlXLNz_cD5LSgaG8"
24.3403337,124.1872098,"Maezato, Ishigaki, Okinawa, Japan (日本石垣石垣市)",2212,1524740400,"pm25","2481","13","+0900","2018-04-26 20:00:00","_8wqwej5_89N5i5_uaNKHsAA"
21.8586,111.9786,"Yuanyang Lake, Yangjiang (阳江鸳鸯湖)",965,1524744000,"pm25","4276","154","+0800","2018-04-26 20:00:00","_AR0A4v9DTjpHdWFuZ2Rvbmcv6Ziz5rGfL-m4s-m4r-a5lg"
36.240156,120.660697,"Yǎng kǒu, Qingdao (青岛仰口)",490,1524744000,"pm25","519","122","+0800","2018-04-26 20:00:00","_c_azCs5IzEtPyc9L1385d9LTTbP1n-ze8LR_MQA"
24.4175,111.5269,"CPPCC Building, Hezhou (贺州环保小区)",1324,1524744000,"pm25","7201","107","+0800","2018-04-26 20:00:00","_ARoA5f9DTjptZXAv6LS65beeL-eOr-S_neWwj-WMug"
37.286,114.494,"内丘县水务局, Xingtai (邢台市内丘县水务局)",769,1524722400,"pm25","9794","172","+0800","2018-04-26 14:00:00","_ATMAzP9DTjpIZWJlaS_pgqLlj7DluIIvW-iwg-ivleS4rV3lhoXkuJjljr_msLTliqHlsYAoKik"
21.1528765,79.0729793,"Civil Lines, Nagpur, India",3186,1524745800,"pm25","9070","71","+0530","2018-04-26 18:00:00","_8_Sz8ktMLygt0nfOLMvMUfDJzEstBgA"
23.5204443,87.3119227,"Sidhu Kanhu Indoor Stadium, Durgapur, India",3192,1524403800,"pm25","9148","-","+0530","2018-04-22 19:00:00","_8_SzciktSk8sKC3SD85MyShV8E7MA5KeeSn5-UUKwSWJKZmluQA"
31.4846,92.0657,"Nagqu Stations, Nagqu (那曲地区那曲监测站)",1482,1524740400,"pm25","7067","82","+0800","2018-04-26 19:00:00","_c_azyk0t0H_ZtPjZ7E1P52x42rMLynk-e-Kzrd3PV88EAA"
34.3469,106.005,"xiānrén yá, Tianshui (天水仙人崖)",1673,1524740400,"pm25","7139","80","+0800","2018-04-26 19:00:00","_ARcA6P9DTjptZXAv5aSp5rC0L-S7meS6uuW0lg"
33.8399,115.8067,"Sewage treatment plant, Bozhou (亳州污水处理厂)",1426,1524744000,"pm25","7129","142","+0800","2018-04-26 20:00:00","_AR0A4v9DTjptZXAv5Lqz5beeL-axoeawtOWkhOeQhuWOgg"
35.1147,111.0414,"Airport new district, Yuncheng (运城空港新区)",1010,1524740400,"pm25","3534","109","+0800","2018-04-26 19:00:00","_ARoA5f9DTjptZXAv6L-Q5Z-OL-epuua4r-aWsOWMug"
40.508,115.296,"Xiahuayuan EPA, Zhangjiakou (张家口市下花园环保局)",540,1524736800,"pm25","4662","89","+0800","2018-04-26 18:00:00","_ASsA1P9DTjpIZWJlaS_lvKDlrrblj6PluIIv5LiL6Iqx5Zut546v5L-d5bGAKCop"
29.117096,110.479191,"Zhangjiajie (张家界)",1159,1524740400,"pm25","1537","72","+0800","2018-04-26 19:00:00","_y02s0NB39rPKTS2I0X-6Z8HTddueT-2J0dfS11RILFaIykjMS8_KTMzKTAUA"
42.257817,118.886856,"Chifeng (赤峰)",1185,1524744000,"pm25","1472","243","+0800","2018-04-26 20:00:00","_y02s0NB39rPKTS2I0X-xdcnTzRti9LX0NRUSixWcMzLTUvPSAQ"
26.582347,101.718637,"Panzhihua (攀枝花)",1168,1524740400,"pm25","1557","151","+0800","2018-04-26 19:00:00","_y02s0NB39rPKTS2I0X82peHZvLkvujbG6GvpayokFisEJOZVZWRmlCYCAA"
43.16642,124.350398,"Siping (四平)",3384,1524744000,"pm25","7920","117","+0800","2018-04-26 20:00:00","_y02s0HD2s8pNLdB_Onv2052b9Z_Pnvhsa_fz1TN1UMWf7Gh4OrXt6ZxdaOJPFzU_nb1WUyGxWCE4syAzLx0A"
41.1556,122.0247,"BDA, Panjin (盘锦开发区)",980,1524740400,"pm25","3496","561","+0800","2018-04-26 19:00:00","_c_azyk0t0H8-e8bLKcv0n-5peNo_8WnPLgA"
32.8002777,102.548888,"Hongyuan county government compound, Ngawa Zong (阿坝红原县人民政府大院)",1327,1511715600,"pm25","8998","-","+0800","2017-11-27 00:00:00","_ASkA1v9DTjptZXAv6Zi_5Z2dL-e6ouWOn-WOv-S6uuawkeaUv-W6nOWkp-mZog"
30.53638889,119.9733333,"永安站, Déqīng, Huzhou (湖州市德清县永安站)",867,1524736800,"pm25","4782","154","+0800","2018-04-26 18:00:00","_AR8A4P9DTjpaaGVqaWFuZy_muZblt57luIIv5rC45a6J56uZ"
27.8953,102.2311,"cháng'ān, Liangshan (凉山长安)",1562,1524740400,"pm25","7060","76","+0800","2018-04-26 19:00:00","_c_azyk0t0H_a3vl040b9l1P3P13XCQA"
46.0872,85.6931,"Wuerhequ trade buidling, Karamay (克拉玛依乌尔禾区商贸楼)",1186,1524744000,"pm25","4300","42","+0800","2018-04-26 20:00:00","_ASkA1v9DTjptZXAv5YWL5ouJ546b5L6dL-S5jOWwlOemvuWMuuWVhui0uOalvA"
8.5140567,76.9477422,"Plammoodu, Thiruvananthapuram, India",3386,1524742200,"pm25","9585","102","+0530","2018-04-26 17:00:00","_8_SzCsnILCotS8xLzCvJSCwoLUrM1Q_ISczNzc9PKQUA"
37.9311,102.6219,"Monitoring station, Wuwei (武威监测站)",1676,1524740400,"pm25","7142","95","+0800","2018-04-26 19:00:00","_c_azyk0t0H-2dtnTFY36z2dPfLa1-_nqmQA"
29.365,102.622222,"hàn yuán xiàn fù táng cūnzi zhàn, Yaan (雅安汉源县富塘村子站)",1293,1516147200,"pm25","8965","-","+0800","2018-01-17 07:00:00","_ASYA2f9DTjptZXAv6ZuF5a6JL-axiea6kOWOv-WvjOWhmOadkeWtkOermQ"
23.05361111,113.7819444,"dōngchéng zhǔ shān, Dongguan (东莞东城主山)",1021,1524744000,"pm25","7035","174","+0800","2018-04-26 20:00:00","_c_azci9NzEtPyc9L13-yY86Lvnkg6un8vic7dj_duBEA"
23.4794,111.26,"lóng xīn, Wuzhou (梧州龙新)",1321,1524744000,"pm25","7185","127","+0800","2018-04-26 20:00:00","_c_azyk0t0H-2aPnT7fP0X-6b-WzaBgA"
19.9974533,73.7898023,"KTHM College, Nashik, India",2895,1524742200,"pm25","9071","109","+0530","2018-04-26 17:00:00","_8_Sz8ksszsjM1vcO8fBVcM7PyUlNTwUA"
39.51,118.681,"Luannan County , Tangshan (唐山市滦南县县政府)",555,1524736800,"pm25","5611","219","+0800","2018-04-26 18:00:00","_ATMAzP9DTjpIZWJlaS_llJDlsbHluIIvW-iwg-ivleS4rV3mu6bljZfljr_ljr_mlL_lupwoKik"
27.829738,112.944049,"Xiangtan (湘潭)",1156,1524740400,"pm25","1534","180","+0800","2018-04-26 19:00:00","_y02s0NB39rPKTS2I0X-2c8azvWtj9LX0NRUSixUiMhPz0ksS8wA"
41.836,114.585,"Kangbao County Environmental Protection Agency , Zhangjiakou (张家口市康保县环保局)",601,1524736800,"pm25","5657","70","+0800","2018-04-26 18:00:00","_c_az8khNSs3Uf7pnwdN12572L366o0k_-sWG5hfrpz7ZsTb26a7tT_bPfdq3_3nfehBjY4OGliYA"
27.725654,106.927389,"Zunyi (遵义)",1187,1524744000,"pm25","1564","55","+0800","2018-04-26 20:00:00","_y02s0NB39rPKTS2I0X_ZuPXJzs4YfS19TYXEYoWo0rzKTAA"
18.219168,109.49364,"lù huítóu, Sanya (三亚鹿回头)",1515,1524740400,"pm25","8632","53","+0800","2018-04-26 19:00:00","_c_azyk0t0H-yo_PJrln6L3fufzp73tMlWwA"
29.2956,117.2461,"táo yán suǒ, Jingdezhen (景德镇陶研所)",1441,1524740400,"pm25","7773","159","+0800","2018-04-26 19:00:00","_ARoA5f9DTjptZXAv5pmv5b636ZWHL-mZtueglOaJgA"
28.6969,115.973,"Jingdong town government, Nanchang (南昌京东镇政府)",1022,1524740400,"pm25","1307","117","+0800","2018-04-26 19:00:00","_AR0A4v9DTjptZXAv5Y2X5piML-S6rOS4nOmVh-aUv-W6nA"
30.934916,108.698194,"Shuangjiang, Chongqing (重庆双江)",1474,1524740400,"pm25","9245","63","+0800","2018-04-26 19:00:00","_c_azyk0t0H_Z3vt0V5v-0_6eZxvnAwA"
25.273566,110.290195,"Guilin (桂林)",1255,1524744000,"pm25","1552","119","+0800","2018-04-26 20:00:00","_y02s0NB39rPKTS2I0X-2sOnZvOkx-lr6mgqJxQrupZk5mXkA"
39.1292,106.7096,"Hongguozi Town Huixin Street, Shizuishan (石嘴山红果子镇惠新街)",1126,1524740400,"pm25","4442","63","+0800","2018-04-26 19:00:00","_ASYA2f9DTjptZXAv55-z5Zi05bGxL-e6ouaenOWtkOmVh-aDoOaWsOihlw"
26.6272,118.1756,"nánpíng qī zhōng, Nanping (南平南平七中)",1480,1524744000,"pm25","7172","188","+0800","2018-04-26 20:00:00","_c_azyk0t0H_aO_3pzs1Q6smO5ic71gIA"
28.4303,117.9033,"BDA Management Committe, Shangrao (上饶开发区管委会)",1474,1524740400,"pm25","7806","161","+0800","2018-04-26 19:00:00","_ASAA3_9DTjptZXAv5LiK6aW2L-W8gOWPkeWMuueuoeWnlOS8mg"
32.7502856,129.877667,"Nagasaki (長崎)",1770,1524740400,"pm25","5593","72","+0900","2018-04-26 20:00:00","_y02s0PAKsHo5dfvTLX1PdzTpP1-x6cneCU839D9du-zZgoU6KJJA4cdNG582dD6bsv5ZZwOq5LO5GyEciKSmQmKxgl9iemJxYnYmAA"
22.7422,114.5317,"Daya bay management committee, Huizhou (惠州大亚湾管委会)",970,1524744000,"pm25","815","119","+0800","2018-04-26 20:00:00","_ASYA2f9DTjpHdWFuZ2Rvbmcv5oOg5beeL-Wkp-S6mua5vueuoeWnlOS8mg"
31.5970951,130.5569158,"Yamashitacho, Kagoshima, Kagoshima, Japan (日本鹿児島市役所鹿児島市)",1757,1524740400,"pm25","2180","112","+0900","2018-04-26 20:00:00","_8wqwerlz_9PWCU83b3u6o0kfmfN0785nnQ0A"
10.782978,106.700711,"Ho Chi Minh City US Consulate, Vietnam (Hà Nội Đại sứ quán Mỹ, Vietnam)",1440,1524625200,"pm25","8767","-","+0700","2018-04-25 10:00:00","_C_Oz8shXcM7IVPDNzMtQcM4sqdQPDVZwzs8rLs1JLEkFAA"
31.7956,117.302,"Baohe District, Hefei (合肥包河区)",1067,1524736800,"pm25","1297","198","+0800","2018-04-26 18:00:00","_c_azyk0t0H86oeNF01L9pz2tzzZtftqzCwA"
29.081875,119.212094,"龙游工业园区, Lóngyóu, Quzhou (衢州市龙游县龙游工业园区)",895,1524736800,"pm25","4810","155","+0800","2018-04-26 18:00:00","_ASgA1_9DTjpaaGVqaWFuZy_ooaLlt57luIIv6b6Z5ri45bel5Lia5Zut5Yy6"
23.6714,116.6339,"Xiyuan Road, Chaozhou (潮州西园路)",1000,1524744000,"pm25","4282","154","+0800","2018-04-26 20:00:00","_AR0A4v9DTjpHdWFuZ2Rvbmcv5r2u5beeL-ilv-Wbrei3rw"
35.5051,112.85,"Water Company, Jincheng (晋城自来水公司)",994,1524740400,"pm25","3516","85","+0800","2018-04-26 19:00:00","_AR0A4v9DTjptZXAv5pmL5Z-OL-iHquadpeawtOWFrOWPuA"
22.4795,120.41175,"Linyuan, Taiwan (台灣林園)",1657,1524744000,"pm25","1637","80","+0800","2018-04-26 20:00:00","_Cwm38snMqyxNzAMA"
31.46745,104.679114,"Mianyang (绵阳)",1170,1524740400,"pm25","1560","78","+0800","2018-04-26 19:00:00","_y02s0NB39rPKTS2I0X--e-vLGZtj9LX0NRUSixV8MxPzKhPz0gE"
23.8844,106.6527,"Blood Center, Baise (百色市中心血站)",1323,1524744000,"pm25","7200","57","+0800","2018-04-26 20:00:00","_AR0A4v9DTjptZXAv55m-6ImyL-W4guS4reW_g-ihgOermQ"
45.0878,124.8292,"jiāngnán, Songyuan (松原江南)",1338,1524740400,"pm25","7290","50","+0800","2018-04-26 19:00:00","_c_azyk0t0H82d9_Tvvn6zzbOf9o7HQA"
25.8471,114.8905,"huá jiān xiéchéng, Ganzhou (赣州华坚鞋城)",1456,1524740400,"pm25","7788","149","+0800","2018-04-26 19:00:00","_c_azyk0t0H-xdfHT7fP0n_b2PZ076-W87qfz-wA"
32.8928,115.8275,"City Monitoring Station, Fuyang (阜阳市监测站)",1208,1524740400,"pm25","7119","104","+0800","2018-04-26 19:00:00","_ARoA5f9DTjptZXAv6Zic6ZizL-W4guebkea1i-ermQ"
26.0762,85.4115,"Muzaffarpur Collectorate, Muzaffarpur, India",4519,1524742200,"pm25","8681","95","+0530","2018-04-26 17:00:00","_8_Sz8i2tSkxLSywqKC3SR2IrOOfn5KQml-QXJZakAgA"
47.8515,88.1267,"City Station, Altay (阿勒泰地区市站)",1244,1524740400,"pm25","7249","30","+0800","2018-04-26 19:00:00","_AR0A4v9DTjptZXAv6Zi_5YuS5rOw5Zyw5Yy6L-W4guermQ"
24.8035377,125.2879675,"Hirara, Miyakojima, Okinawa, Japan (日本平良宮古島市)",1868,1524740400,"pm25","2486","21","+0900","2018-04-26 20:00:00","_ARYA6f9KUDrlrq7lj6Tls7bluIIv5bmz6Imv"
27.7157138,102.80435,"Butuo County Environmental Protection roof, Liangshan (凉山布拖县环保局楼顶)",1333,1516147200,"pm25","9004","-","+0800","2018-01-17 07:00:00","_ASYA2f9DTjptZXAv5YeJ5bGxL-W4g-aLluWOv-eOr-S_neWxgOalvOmhtg"
35.07083333,117.4516667,"Shanting EPA, Zaozhuang (枣庄山亭区环保局)",482,1524744000,"pm25","543","122","+0800","2018-04-26 20:00:00","_ASYA2f9DTjpTaGFuZ2Rvbmcv5p6j5bqEL-WxseS6reWMuueOr-S_neWxgA"
39.846,114.596,"Yuxian Secondary School , Zhangjiakou (张家口市蔚县第二中学)",604,1524722400,"pm25","5660","98","+0800","2018-04-26 14:00:00","_ATYAyf9DTjpIZWJlaS_lvKDlrrblj6PluIIvW-iwg-ivleS4rV3olJrljr_nrKzkuozkuK3lraYoKik"
26.745635,128.1779073,"Okinawa, Japan (日本国設辺戸岬酸性雨国頭郡国頭村)",1910,1524740400,"pm25","3756","42","+0900","2018-04-26 20:00:00","_8wqwejp778sFa182L4Qwns2dqA9kvVix9sW-Xc86djzdtOZl645nDctfzl4BAA"
27.608483,85.547803,"Dhulikhel, Kavre, Nepal",1802,1496380500,"pm25","9287","-","+0545","2017-06-02 11:00:00","_8wuw8k4sK0rVd8kozcnMzkjNAQA"
39.795,116.506,"BDA, Beijing (北京亦庄开发区)",498,1524744000,"pm25","460","173","+0800","2018-04-26 20:00:00","_ARYA6f_ljJfkuqw65Lqm5bqE5byA5Y-R5Yy6"
40.7608,107.4211,"fùzhōng, Bayannur (巴彦淖尔附中)",1485,1524744000,"pm25","7306","48","+0800","2018-04-26 20:00:00","_ARoA5f9DTjptZXAv5be05b2m5reW5bCUL-mZhOS4rQ"
13.6217753,123.1948238,"Penro, Naga City, Philippines",2275,1524747600,"pm25","9570","30","+0800","2018-04-26 21:00:00","_C_Cw8ktMT1Rwziyp1A9IzSvKBwA"
40.5905,110.0067,"Donghe EPB, Baotou (包头东河城环局)",1135,1524744000,"pm25","3411","72","+0800","2018-04-26 20:00:00","_AR0A4v9DTjptZXAv5YyF5aS0L-S4nOays-WfjueOr-WxgA"
19.190056,100.170326,"Knowledge Park, Phayao, Thailand (อุทยานการเรียนรู้กว๊านพะเยา)",1650,1524740400,"pm25","1831","43","+0700","2018-04-26 18:00:00","_C_GwerBj7YMdOx7smP5gx6IHOzY92DHzwY5GMGPxg50NIHLHVrDUTDB754OdnWAFyx_s7IKpn_dgxwawYpAJAA"
30.297277,108.031805,"Zhongxian Middle School, Chongqing (重庆忠县中学)",1475,1524740400,"pm25","9246","65","+0800","2018-04-26 19:00:00","_c_azyk0t0H_Z3vt0V5v-0_0Lnvbtf7Jj7dO1ywA"
30.9413888,100.31,"Xinlong County, Garzê Zong (甘孜新龙县政府)",1296,1516147200,"pm25","8968","-","+0800","2018-01-17 07:00:00","_AR0A4v9DTjptZXAv55SY5a2cL-aWsOm-meWOv-aUv-W6nA"
41.7192,86.2022,"Cotton Mill, Korla (库尔勒棉纺厂)",1166,1524744000,"pm25","4431","157","+0800","2018-04-26 20:00:00","_c_azyk0t0H-6a_LTDVOedk_Sf7a48_muXU_7mgA"
37.8873,112.522,"Jiancaoping, Taiyuan (太原尖草坪)",976,1524740400,"pm25","1238","117","+0800","2018-04-26 19:00:00","_c_azyk0t0H-6ZNXTvvn6TzdMe9Hb-XTuKgA"
45.6289,122.8444,"EPA Taobei, Baicheng (白城洮北区环保局)",1478,1524744000,"pm25","7292","91","+0800","2018-04-26 20:00:00","_ASAA3_9DTjptZXAv55m95Z-OL-a0ruWMl-WMuueOr-S_neWxgA"
31.951944,108.659444,"běi dàjiē, Chongqing (重庆北大街)",1464,1524740400,"pm25","9235","76","+0800","2018-04-26 19:00:00","_c_azyk0t0H_Z3vt0V5v-057pT5csf7FwOgA"
37.339,115.381,"南宫第一小学, Xingtai (邢台市南宫第一小学)",783,1524722400,"pm25","9808","183","+0800","2018-04-26 14:00:00","_ATMAzP9DTjpIZWJlaS_pgqLlj7DluIIvW-iwg-ivleS4rV3ljZflrqvnrKzkuIDlsI_lraYoKik"
30.83555556,114.7913889,"新洲区站, Wuhan",1294,1524744000,"pm25","9868","137","+0800","2018-04-26 20:00:00","_c_azCi_NSMzTfzZtw7Mtm5727Hq-eiYA"
43.6267,122.2603,"Tongliao hotels, Tongliao (通辽通辽宾馆)",1480,1524744000,"pm25","7300","80","+0800","2018-04-26 20:00:00","_c_azyk0t0H_ZMOvFvr1Q6um6fS-XtQEA"
42.9559,89.1673,"dìqū huánbǎo jú, Turpan (吐鲁番地区地区环保局)",1371,1524744000,"pm25","7230","158","+0800","2018-04-26 20:00:00","_c_azyk0t0H86YcLLTY3Pp656OmfD055d-hDqed_6J_vnPt3YAAA"
19.140793,110.553,"Bó'áo guó Guest House Station , Qionghai (琼海博鳌国宾馆站)",1392,1456711200,"pm25","4860","-","+0800","2016-02-29 09:00:00","_ASAA3_9DTjptZXAv55C85rW3L-WNmumzjOWbveWuvummhuermQ"
38.614,114.746,"曲阳行政中心, Baoding (保定市曲阳行政中心)",722,1524736800,"pm25","9747","183","+0800","2018-04-26 18:00:00","_ATMAzP9DTjpIZWJlaS_kv53lrprluIIvW-iwg-ivleS4rV3mm7LpmLPooYzmlL_kuK3lv4MoKik"
30.274085,120.15507,"Hangzhou (杭州)",1182,1524740400,"pm25","1439","180","+0800","2018-04-26 19:00:00","_y02s0HD2s4rKSM3KTMxL1382d-3T7fOe7mjSfzZn7rOZ057smvK0Z5cOdiVPe5e_3Dfz2cKlOOSfbZ35bOP8p21zni5ZjsuIST3P5y57uqH_6dplOG2Z_mzGfNy2vFi6_9muVbicsHsF0AmaConFCh5AmaqM_FIA"
37.463822,121.447935,"Yantai (烟台)",1268,1524744000,"pm25","1509","171","+0800","2018-04-26 20:00:00","_y02s0HD2swrOSMxLT8nPS9d_3jz_af8G_Rd7tzzr3P-0r0kHq-zS_S-bu572THu6fenz1TOxqnm5qfHJjjlPlyx_unYZVgXPl_U_3bjxac-u57MnPtvajcuc553zn-7cDFLWt_7J_rlPNzZgd1LfRqhpMGWaConFCpGJeSWJmQA"
33.6387607,114.6420777,"chuān huì qū huánbǎo jú, Zhoukou (周口川汇区环保局)",1450,1524744000,"pm25","5818","72","+0800","2018-04-26 20:00:00","_ASIA3f9DTjpIZW5hbi_lkajlj6Mv5bed5rGH5Yy6546v5L-d5bGA"
28.8253591,78.7830383,"Lajpat Nagar, Moradabad, India",4135,1524742200,"pm25","9586","880","+0530","2018-04-26 17:00:00","_8_Sz8s0vSkxJTEpM0fdJzCpILFHwS0xPLAIA"
29.993049,120.643444,"Donghu middle school, Shaoxing (绍兴市东湖中学)",828,1524736800,"pm25","746","165","+0800","2018-04-26 18:00:00","_ASIA3f9DTjpaaGVqaWFuZy_nu43lhbTluIIv5Lic5rmW5Lit5a2m"
30.335165,112.239741,"Jingzhou (荆州)",1166,1524744000,"pm25","1531","152","+0800","2018-04-26 20:00:00","_y02s0HD2s_IoTUrN1H_R2_Z0-zwdNL7-0x1NT2fve7Jz2ctlbVgll0952jrr2YKFGJLPl098Ma_3ed_6J_vnaiokFit4ZealV2XklwIA"
32.978974,130.8084429,"Waifu, Kikuchi, Kumamoto, Japan (日本菊池市役所菊池市)",1753,1524740400,"pm25","2107","70","+0900","2018-04-26 20:00:00","_8wqwetHf9Wzjgqc7mvThrKd7dz7rbAAA"
32.4535,105.8945,"Heishipo, Guangyuan (广元黑石坡)",1335,1524740400,"pm25","7043","68","+0800","2018-04-26 19:00:00","_c_azyk0t0H-6c__T1mb9l7snPp-_-enchQA"
43.9317,116.1042,"Municipal Environmental Monitoring Station, Xilin Gol Meng (锡林郭勒盟市环保监测站)",1475,1524744000,"pm25","7313","55","+0800","2018-04-26 20:00:00","_ASkA1v9DTjptZXAv6ZSh5p6X6YOt5YuS55ufL-W4gueOr-S_neebkea1i-ermQ"
38.808055556,121.25888889,"Lushun, Dalian (大连旅顺)",1044,1524744000,"pm25","1264","171","+0800","2018-04-26 20:00:00","_c_azyk0t0H-6ZPmL_fP0n01vfblwFwA"
28.855767,120.728872,"仙居县环监站, Xianjū, Taizhou (台州市仙居县仙居县环监站)",909,1524736800,"pm25","4824","151","+0800","2018-04-26 18:00:00","_ASgA1_9DTjpaaGVqaWFuZy_lj7Dlt57luIIv5LuZ5bGF5Y6_546v55uR56uZ"
25.7759,113.0348,"City EPA, Chenzhou (郴州市环保局)",1569,1524740400,"pm25","7832","139","+0800","2018-04-26 19:00:00","_c_azyk0t0H_ZvOXp9nn6T3c0Pe9b_2T_3KcbGwA"
43.941,81.3364,"No.2 water factory, Yili (伊犁哈萨克州第二水厂)",1383,1524744000,"pm25","7246","78","+0800","2018-04-26 20:00:00","_ASYA2f9DTjptZXAv5LyK54qB5ZOI6JCo5YWL5beeL-esrOS6jOawtOWOgg"
35.152569,138.6788614,"Tsuta, Fuji, Shizuoka, Japan (日本救急医療センター富士市)",1825,1524740400,"pm25","2362","55","+0900","2018-04-26 20:00:00","_ASUA2v9KUDrlr4zlo6vluIIv5pWR5oCl5Yy755mC44K744Oz44K_44O8"
21.0811211,105.8180306,"United Nations International School of Hanoi, Vietnam",1592,1524744645,"pm25","8688","97","+0700","2018-04-26 19:10:45","_C_Oz8kjMy8_UD_XzDAYA"
39.899,117.72,"玉田县工信局, Tangshan (唐山市玉田县工信局)",699,1524722400,"pm25","9715","193","+0800","2018-04-26 14:00:00","_ATMAzP9DTjpIZWJlaS_llJDlsbHluIIvW-iwg-ivleS4rV3njonnlLDljr_lt6Xkv6HlsYAoKik"
36.49722222,117.8477778,"Boshan shuangshan, Zibo (淄博博山双山)",534,1524744000,"pm25","531","165","+0800","2018-04-26 20:00:00","_c_azCs5IzEtPyc9L13-2veVp7yx9IH66cePT_h4gCQA"
41.0385,113.1076,"光明街小学, Ulanqab (乌兰察布光明街小学)",1480,1524744000,"pm25","9890","104","+0800","2018-04-26 20:00:00","_ASMA3P9DTjptZXAv5LmM5YWw5a-f5biDL-WFieaYjuihl-Wwj-Wtpg"
35.5102,102.0199,"tóngrén, lóngwù, Huangnan (黄南州同仁县隆务镇)",1616,1524744000,"pm25","7568","76","+0800","2018-04-26 20:00:00","_ASMA3P9DTjptZXAv6buE5Y2X5beeL-WQjOS7geWOv-mahuWKoemVhw"
26.3108,117.7275,"Yangxi, Sanming (三明洋溪)",1475,1524744000,"pm25","7165","89","+0800","2018-04-26 20:00:00","_c_azyk0t0H-yo_PZjD79Z1u6n-1aBQA"
42.8172,93.5128,"dìqū jiāncè zhàn, Kumul (哈密地区地区监测站)",1372,1524744000,"pm25","7231","71","+0800","2018-04-26 20:00:00","_c_azyk0t0H86uePp-ranczY87dmlD6Gez574bGv389UzAQ"
15.707848227166,100.1319285287,"Nakhonsawan Irrigation , Nakhon Sawan, Thailand (โครงการชลประทานนครสวรรค์)",1499,1524736800,"pm25","1825","60","+0700","2018-04-26 17:00:00","_C_GwerCz6cGOlgc7Fj_Y0f5gR-ODHZvA7K4HO5Y-2DEbzN7wYMd0sPhMMIIoXvVgx3IwYzFIZGcPAA"
22.4886,113.434,"Yangtze River tourist area, Zhongshan (中山长江旅游区)",975,1524744000,"pm25","822","132","+0800","2018-04-26 20:00:00","_ASMA3P9DTjpHdWFuZ2Rvbmcv5Lit5bGxL-mVv-axn-aXhea4uOWMug"
23.7106,113.0208,"Fengcheng Subdistrict, Qingyuan (清远凤城街办)",1032,1524744000,"pm25","9854","117","+0800","2018-04-26 20:00:00","_c_azci9NzEtPyc9L13-2o_XF_jn6T9uXPJ3f92Lh9Kdd8wA"
41.215,116.652,"Fengning County City Hall, Chengde (承德市丰宁县政府)",547,1524736800,"pm25","4669","91","+0800","2018-04-26 18:00:00","_ASUA2v9DTjpIZWJlaS_mib_lvrfluIIv5Liw5a6B5Y6_5pS_5bqcKCop"
33.6133246,130.6948903,"Hiratsune, Iizuka-shi, Fukuoka-ken, Japan (日本飯塚飯塚市)",2333,1524744000,"pm25","7982","76","+0900","2018-04-26 21:00:00","_8wqwerl4_dOFs57uaNKHsAA"
50.4269,124.1186,"Environment protection office, Daxing'anling (大兴安岭地区环保局)",1450,1524744000,"pm25","7560","42","+0800","2018-04-26 20:00:00","_ASMA3P9DTjptZXAv5aSn5YW05a6J5bKt5Zyw5Yy6L-eOr-S_neWxgA"
9.1368079509525,99.320715944922,"Regional Environmental Office 14, Surat Thani, Thailand (สำนักงานสิ่งแวดล้อมภาคที่ 14)",1646,1524740400,"pm25","1826","27","+0700","2018-04-26 18:00:00","_HcpNCkBQAADhq7iCsnICB3AhpbBXsmMhpSz81bzbzFE8lvM1ZZHLJpeMckgljZx_Rr8N7Sch-iq9LIZOdpll-s9aBnnimaTZCw"
33.933096,118.292648,"Suqian College , Suqian (宿迁宿迁学院)",1147,1524744000,"pm25","894","158","+0800","2018-04-26 20:00:00","_c_az8spMzEsvLtV_um7_i_2NUOrp2mUvZy4CAA"
23.3594,104.2533,"State Water Authority, Wenshan (文山州州水务局)",1368,1524744000,"pm25","7219","149","+0800","2018-04-26 20:00:00","_c_azyk0t0H82rf3pxo1Pt8_TB-JnG7Y87Vr4dGMDAA"
35.7067,107.6364,"City EPA, Qingyang (庆阳市环保局)",1685,1524740400,"pm25","7152","78","+0800","2018-04-26 19:00:00","_c_azyk0t0H-6q-3ljM36T3c0Pe9b_2T_3KcbGwA"
21.6669,110.9067,"Jiankang road, Maoming (茂名健康路)",988,1524744000,"pm25","4266","104","+0800","2018-04-26 20:00:00","_c_azci9NzEtPyc9L13_R0_R0Qq_-08alT3dtf7F9PQA"
36.2348483,137.9435231,"Shimadachi, Matsumoto, Nagano, Japan (日本松本松本市)",1800,1524740400,"pm25","1917","74","+0900","2018-04-26 20:00:00","_8wqwejZ337M5a57uaNKHsAA"
37.43805556,118.625,"Vocational College, Dongying (东营职业学院)",538,1524744000,"pm25","548","163","+0800","2018-04-26 20:00:00","_ASAA3_9DTjpTaGFuZ2Rvbmcv5Lic6JClL-iBjOS4muWtpumZog"
40.842299,111.749138,"Engineering University, Jinchuan Campus, Hohhot (呼和浩特工大金川校区)",947,1524740400,"pm25","940","127","+0800","2018-04-26 19:00:00","_ASkA1v9DTjptZXB3Y2Yv5ZG85ZKM5rWp54m5L-W3peWkp-mHkeW3neagoeWMug"
24.863869,121.21635,"Longtan, Taiwan (台灣龍潭)",1621,1524744000,"pm25","1606","114","+0800","2018-04-26 20:00:00","_Cwm38snPSy9JzAMA"
27.815619,114.416778,"Yichun (伊春)",1434,1524740400,"pm25","7881","157","+0800","2018-04-26 19:00:00","_y02s0HD2s8pNLdB_um7OsxlL9Z_uaHq6c__zKVufbmzQwZB6Pn_zs007n7auedq_A1P2yY61T2fvfTl524uFPZiyzzZMebFxIaaxz5bPf7ZsyrMNW57smKWpkFisEJmZnFGaBwA"
24.3411,102.4964,"Dayingjie town, Yuxi (玉溪大营街镇)",1098,1482379200,"pm25","3475","-","+0800","2016-12-22 11:00:00","_ARoA5f9DTjptZXAv546J5rqqL-Wkp-iQpeihl-mVhw"
37.9889584,138.3951928,"Hatano, Sado-shi, Niigata-ken, Japan (日本佐渡佐渡市)",2423,1524740400,"pm25","7702","42","+0900","2018-04-26 20:00:00","_8wqwerJ3wrMdC5_uaNKHsAA"
32.318255,109.715304,"Zhuxi County, Shiyan, Hubei (湖北十堰竹溪县)",1257,1497592800,"pm25","7760","-","+0800","2017-06-16 14:00:00","_c_az8ihNSs3Uf9rb-HTBBv3nq3c-27Xqad9-AA"
32.9069444,101.708333,"Aba County Environmental Protection Bureau, Ngawa Zong (阿坝阿坝县环保林业局)",1326,1516147200,"pm25","8997","-","+0800","2018-01-17 07:00:00","_c_azyk0t0H85Y__TuXOh1NO-_c_71j_ZP_fZvOlPdsx6urEBAA"
37.1152,79.9485,"dìqū zhàn, Hotan (和田地区地区站)",1379,1524744000,"pm25","7242","848","+0800","2018-04-26 20:00:00","_c_azyk0t0H86qef5lA1P52x42rNLH0I9Xz0TAA"
36.0756,103.712,"Worker hospital, Lanzhou (兰州职工医院)",927,1524740400,"pm25","1403","127","+0800","2018-04-26 19:00:00","_c_azyk0t0H_auuHp9nn6Lxp7nm5f-rRn98uZiwA"
29.3547,110.5594,"Weiyang Road, Zhangjiajie (张家界未央路)",1166,1524740400,"pm25","4454","61","+0800","2018-04-26 19:00:00","_ARoA5f9DTjptZXAv5byg5a6255WML-acquWkrui3rw"
28.1644444,105.433055,"Xuyong County Chinese Medicine Hospital, Luzhou (泸州叙永县中医医院)",1278,1511762400,"pm25","8950","-","+0800","2017-11-27 13:00:00","_c_azyk0t0H-2ecfT7fP0n_bPfLZhx9O-_U92rH3asxuIXs5cBAA"
35.0697,109.0697,"Wangyi District Government, Tongchuan (铜川王益区政府)",957,1524740400,"pm25","4416","87","+0800","2018-04-26 19:00:00","_AR0A4v9DTjptZXAv6ZOc5bedL-eOi-ebiuWMuuaUv-W6nA"
19.540055,101.048298,"Huai Kon, Chaloem Phra Kiat, Nan, Thailand (ต.ห้วยโก๋น อ.เฉลิมพระเกียรติ จ.น่าน)",1553,1524736800,"pm25","8503","74","+0700","2018-04-26 17:00:00","_HYyxCYBAEARbsQILsAILsCDfSDH-4BNBRQxEEFHY62ZK8d5smd3Zpq5QLNGBDWhHC9ahgI0oFegssRZ5uaEHzWhCK7p-HtCbpUyiD9zo_S5hPbo9fA"
33.0014,97,"yùshù, jiégǔ, Yushu (玉树州玉树县结古镇)",1488,1524744000,"pm25","7570","50","+0800","2018-04-26 20:00:00","_c_azyk0t0H_e1_lswcSn2-fBWH37n--e_LR_ycup7QA"